wikidata_id,name,enwiki_title,alternate_names,country_code,latitude,longitude,geonames_id,osm_id
Q66117,Morelos,Morelos,莫雷洛斯州|Morelos|Morelos|Morelos,MX,18.7475,-99.070274,3522961,1376332
Q66743,Puducherry,Puducherry (union territory),Territoire de Pondichéry|Puducherry|Puducherry|本地治里,IN,11.93,79.83,1259424,107001
Q66710,Daman and Diu,Daman and Diu,达曼-第乌|Daman et Diu|Damán y Diu|Daman und Diu,IN,20.426945,72.85,1271155,1953042
Q115497,Pinar del Río Province,Pinar del Río Province,比那尔德里奥省|Pinar del Río|Provincia de Pinar del Río|Provinz Pinar del Río,CU,22.4122,-83.6719,3544088,1854617
Q117714,Anambra State,Anambra State,阿南布拉州|Anambra|Anambra|Anambra,NG,6.3333335,7.0,2349961,3715505
Q153329,Rukwa Region,Rukwa Region,魯夸區|Rukwa|Región de Rukwa|Rukwa,TZ,-8.0,31.333334,150442,1600839
Q153335,Tabora Region,Tabora Region,塔波拉區|Tabora|Región de Tabora|Tabora,TZ,-5.5,32.833332,149653,1600809
Q153339,Shinyanga Region,Shinyanga Region,欣延加區|Región de Shinyanga|Shinyanga|Shinyanga,TZ,-3.75,33.0,150004,5712716
Q188785,Central District,Central District (Israel),Distrito Central|Zentralbezirk|中央区|district centre,IL,31.933332,34.866665,294904,1400928
Q188796,Galați County,Galați County,加拉茨縣|Județ de Galați|Kreis Galați|Galați,RO,45.79,27.78,677692,2260192
Q79754,Querétaro,Querétaro,克雷塔羅州|Querétaro|Querétaro|Querétaro,MX,20.591,-100.391,3520914,2340903
Q123258,Fukuoka Prefecture,Fukuoka Prefecture,福岡縣|préfecture de Fukuoka|prefectura de Fukuoka|Präfektur Fukuoka,JP,33.60611,130.41806,1863958,1553735
Q159736,Leinster,Leinster,倫斯特省|Leinster|Leinster|Leinster,IE,53.34778,-6.259722,7521314,278746
Q160284,Free State,Free State (province),Freistaat|自由邦省|État libre|Provincia del Estado Libre,ZA,-28.0,27.0,967573,92417
Q180415,Ghazni Province,Ghazni Province,Ghazni|Gazni|Ghazni|加兹尼省,AF,33.5,68.0,1141268,
Q180484,Epirus Region,Epirus (region),periferia de Epiro|伊庇鲁斯大区|Épire|Epirus,GR,39.5,20.833334,6697804,554424
Q188732,Gomel Region,Gomel region,Provincia de Gómel|Homelskaja Woblasz|戈梅利州|voblast de Homiel,BY,52.333332,29.666666,628281,59161
Q188781,Southern District,Southern District (Israel),南部区|district sud|Distrito Meridional|Südbezirk,IL,30.666666,34.833332,294952,1473952
Q75445,Yozgat Province,Yozgat Province,Yozgat|Yozgat|约兹加特省|Provincia de Yozgat,TR,39.669445,35.269165,296560,154450
Q78980,San Luis Potosí,San Luis Potosí,San Luis Potosí|San Luis Potosí|San Luis Potosí|圣路易斯波托西州,MX,22.603333,-100.429726,3985605,4086617
Q122723,Osaka Prefecture,Osaka Prefecture,大阪府|préfecture d'Osaka|Prefectura de Osaka|Präfektur Osaka,JP,34.686333,135.51987,1853904,341906
Q159477,Emirate of Ajman,Emirate of Ajman,阿治曼酋长国|Ajman|Adschman|Ajman,AE,25.4,55.5,292933,3766482
Q180379,Rēzekne,Rēzekne,Rēzekne|Rēzekne|Rēzekne|雷澤克內,LV,56.506668,27.330833,456202,1865678
Q180414,Batha Region,Batha (region),巴塔区|Región de Batha|Batha|Batha,TD,13.214,18.336,2435899,3106605
Q188665,Prahova County,Prahova County,Kreis Prahova|Prahova|distrito de Prahova|普拉霍瓦縣,RO,45.1,26.02,669737,2355507
Q188665,Prahova County,Prahova County,Kreis Prahova|Prahova|distrito de Prahova|普拉霍瓦縣,RO,45.166668,26.0,669737,2355507
Q71699,Aomori Prefecture,Aomori Prefecture,青森縣|préfecture d'Aomori|Prefectura de Aomori|Präfektur Aomori,JP,40.82461,140.74055,2130656,1834655
Q71707,Fukushima Prefecture,Fukushima Prefecture,Prefectura de Fukushima|Präfektur Fukushima|préfecture de Fukushima|福島縣,JP,37.75028,140.46774,2112922,1800608
Q72818,Haiphong,Haiphong,海防市|Haïphong|Hải Phòng|Hải Phòng,VN,20.8,106.666664,1581297,1902682
Q119158,Federal District,Federal District (Brazil),聯邦區|District fédéral|Distrito Federal|Distrito Federal,BR,-15.783334,-47.75,3463504,421151
Q119494,Mandalay Region,Mandalay Region,曼德勒省|Región del Mandalay|Mandalay-Region|Mandalay,MM,21.0,95.75,1311871,5996480
Q120730,Kyoto Prefecture,Kyoto Prefecture,préfecture de Kyoto|京都府|Prefectura de Kioto|Präfektur Kyōto,JP,35.021027,135.75558,1857907,2137477
Q121104,Balkh Province,Balkh Province,巴尔赫省|Balj|Balch|Balkh,AF,36.7,67.11667,1147288,1674795
Q121233,Boyacá Department,Boyacá Department,Departamento de Boyacá|Boyacá|Boyacá|博亚卡省,CO,5.75,-73.1,3688536,1390144
Q154002,Melekeok,Melekeok (town),梅萊凱奧克|Melekeok|Melekeok (ciudad)|Melekeok,PW,7.49333,134.63417,1559804,
Q155219,Niğde Province,Niğde Province,尼代省|Niğde|Provincia de Niğde|Niğde,TR,37.915833,34.69361,303826,154456
Q158087,Chattogram Division,Chittagong Division,吉大港專區|Chittagong|Chittagong|Chittagong,BD,22.916666,91.5,1337200,3824588
Q158903,Shusha,Shusha,舒沙|Choucha|Shusha|Şuşa,AZ,39.760212,46.750378,147105,875910981
Q159380,Bitola Municipality,Bitola Municipality,比托拉市镇|Municipalidad de Bitola|Opština Bitola|Bitola,MK,41.033333,21.333334,863486,2598354
Q79760,Bingöl Province,Bingöl Province,Bingöl|Bingöl|provincia de Bingöl|宾格尔省,TR,39.04111,40.675835,321079,223444
Q79840,Ardahan Province,Ardahan Province,provincia de Ardahan|阿尔达汉省|Ardahan|Ardahan,TR,41.113056,42.820835,862470,1251450
Q123304,Antioquia,Antioquia Department,安蒂奥基亚省|Antioquia|Antioquia|Antioquia,CO,6.6833334,-75.566666,3689815,1315120
Q123376,Ehime Prefecture,Ehime Prefecture,爱媛县|Prefectura de Ehime|Präfektur Ehime|préfecture d'Ehime,JP,33.84139,132.76555,1864226,3795063
Q123934,Muğla Province,Muğla Province,穆拉省|Provincia de Muğla|Muğla|Muğla,TR,37.030277,28.50639,304183,223136
Q160420,Saga Prefecture,Saga Prefecture,préfecture de Saga|佐賀縣|prefectura de Saga|Präfektur Saga,JP,33.24917,130.29944,1853299,1842150
Q160734,Tokushima Prefecture,Tokushima Prefecture,préfecture de Tokushima|德島縣|Prefectura de Tokushima|Präfektur Tokushima,JP,34.065556,134.55917,1850157,3795000
Q180822,Mjini Magharibi Region,Mjini Magharibi Region,Unguja Ville et Ouest|Región de Zanzibar Urban/West|Zanzibar Urban/West|尚西巴西區,TZ,-6.1666665,39.25,148724,1614023
Q181018,Bács-Kiskun County,Bács-Kiskun County,巴奇-基什孔州|Bács-Kiskun|Bács-Kiskun|Komitat Bács-Kiskun,HU,46.5,19.416666,3055744,22260
Q181209,Suceava County,Suceava County,distrito de Suceava|蘇恰瓦縣|Suceava|Kreis Suceava,RO,47.58,25.76,665849,2077868
Q188797,Dâmbovița County,Dâmbovița County,Dâmbovița|登博維察縣|Kreis Dâmbovița|Dâmbovița,RO,44.89,25.47,679385,2355471
Q188810,Emirate of Sharjah,Emirate of Sharjah,émirat de Charjah|沙迦酋長國|Sharjah|Schardscha,AE,25.35,55.433056,292673,3766486
Q188813,Maramureș County,Maramureș County,Maramureș|Maramureș|馬拉穆列什縣|Kreis Maramureș,RO,47.67278,24.005,673887,72481
Q79846,Aydın Province,Aydın Province,艾登省|Aydın|Aydın|provincia de Aydin,TR,37.728333,27.937222,322819,223166
Q79861,Michoacán,Michoacán,米却肯州|Michoacán|Michoacán|Michoacán,MX,19.21,-101.91,3995955,2340636
Q79918,Durango,Durango,杜蘭戈州|Durango|Durango|Durango,MX,24.934723,-104.91194,4011741,2399740
Q125506,Iğdır Province,Iğdır Province,厄德尔省|Iğdır|Provincia de Iğdır|Iğdır,TR,39.893612,43.997776,443184,186434
Q161258,Clipperton Island,Clipperton Island,île Clipperton|Isla Clipperton|Clipperton-Insel|克利珀頓島,FR,10.293889,-109.217224,4020095,9823701
Q161454,Kagawa Prefecture,Kagawa Prefecture,préfecture de Kagawa|香川县|Prefectura de Kagawa|Präfektur Kagawa,JP,34.34,134.04306,1860834,3795064
Q181220,Daykundi Province,Daikundi Province,代孔迪省|Deykandi|Daikondi|Daikondi,AF,33.75,66.25,6957553,
Q181235,Panjshir Province,Panjshir Province,潘傑希爾省|Panjshīr|Pandschschir|Panchir,AF,35.4275,69.735,6957555,
Q181342,Trnava Region,Trnava Region,région de Trnava|特爾納瓦州|Región de Trnava|Trnavský kraj,SK,48.3775,17.588333,3343958,388266
Q188890,Veszprém County,Veszprém County,維斯普雷姆州|Komitat Veszprém|Veszprém|Veszprém,HU,47.166668,17.75,3042925,22278
Q188895,Borsod-Abaúj-Zemplén County,Borsod–Abaúj–Zemplén County,包爾紹德-奧包烏伊-曾普倫州|Borsod-Abaúj-Zemplén|Borsod-Abaúj-Zemplén|Komitat Borsod-Abaúj-Zemplén,HU,48.25,21.0,722064,22271
Q188933,Kabul Province,Kabul Province,喀布尔省|Provinz Kabul|Kaboul|Kabul,AF,34.56,69.22,1138957,
Q79920,Nayarit,Nayarit,Nayarit|Nayarit|Nayarit|納亞里特州,MX,22.0,-105.0,3995012,7695827
Q79923,Puebla,Puebla,普埃布拉州|Puebla|Puebla|Puebla,MX,19.00361,-97.888336,3521082,1376491
Q125711,Cuvette-Ouest Department,Cuvette-Ouest Department,Cuvette-Ouest|Cuvette-Oeste|Cuvette-Ouest|西盆地省,CG,-0.8666667,14.8167,2593118,3220589
Q125863,Yamagata Prefecture,Yamagata Prefecture,Präfektur Yamagata|山形縣|préfecture de Yamagata|Prefectura de Yamagata,JP,38.240444,140.36356,2110554,3790869
Q126125,Saint-Martin,Collectivity of Saint Martin,Saint-Martin|Saint-Martin|San Martín|法屬聖馬丁,FR,18.075277,-63.06,3578421,1891583
Q162475,County Cork,County Cork,科克郡|comté de Cork|Condado de Cork|County Cork,IE,52.0,-8.75,2965139,332631
Q163239,Balochistan,"Balochistan, Pakistan",Baloutchistan|Baluchistán|Belutschistan|俾路支省,PK,30.12,67.01,1183606,357968
Q181513,Bistrița-Năsăud County,Bistrița-Năsăud County,Bistrița-Năsăud|Bistrița-Năsăud|Kreis Bistrița-Năsăud|比斯特里察-訥瑟烏德縣,RO,47.1389,24.5003,684647,55466
Q181557,Kaohsiung,Kaohsiung,高雄市|Kaohsiung|Kaohsiung|Kaohsiung,TW,22.615,120.2975,1673820,2127079
Q181557,Kaohsiung,Kaohsiung,高雄市|Kaohsiung|Kaohsiung|Kaohsiung,TW,22.615,120.2975,7280289,2127079
Q188945,Olt County,Olt County,distrito de Olt|奧爾特縣|Kreis Olt|Olt,RO,44.4333,24.3667,671857,2366978
Q188947,Kedah,Kedah,Kedah|Kedah|Kedah|吉打,MY,6.1283336,100.36278,1733048,4444908
Q188948,Călărași County,Călărași County,克勒拉希縣|Kreis Călărași|Călărași|Călărași,RO,44.333332,27.55,683016,2367015
Q79952,Aguascalientes,Aguascalientes,Aguascalientes|Aguascalientes|Aguascalientes|阿瓜斯卡連特斯州,MX,22.05,-102.3,4019231,2610002
Q80007,Tamaulipas,Tamaulipas,塔毛利帕斯州|Tamaulipas|Tamaulipas|Tamaulipas,MX,24.287222,-98.56333,3516391,2415518
Q126874,Kütahya Province,Kütahya Province,屈塔希亚省|Provincia de Kütahya|Kütahya|Kütahya,TR,39.30472,29.59,305267,223172
Q127167,Western Cape,Western Cape,西開普省|Cap-Occidental|Provincia Occidental del Cabo|Westkap,ZA,-34.0,20.0,1085599,80501
Q164071,South Jutland County,South Jutland County,南日德蘭郡|Jutland-du-Sud|Jutlandia Meridional|Sønderjyllands Amt,DK,55.044445,9.414444,,
Q164123,Municipality of Bloke,Municipality of Bloke,Gemeinde Bloke|布洛凯市镇|Municipalidad del Bloke|Bloke,SI,45.783333,14.483334,3344899,1681539
Q164421,Connacht,Connacht,康諾特省|Connacht|Connacht|Connacht,IE,53.78,-9.05,7521313,278721
Q164474,Kamuli District,Kamuli District,卡穆利區|Distrito de Kamuli|Distrikt Kamuli|Kamuli,UG,1.0,33.166668,443340,3498118
Q165352,Kerman Province,Kerman province,克爾曼省|Kermán|Kerman|Kerman,IR,29.21,57.07,128231,229593
Q181636,North Gaza Governorate,North Gaza Governorate,北加沙省|gouvernorat de Gaza-Nord|Gobernación de Gaza del Norte|Gouvernement Nordgaza,PS,31.52467,34.53581,7870263,4731200
Q181636,North Gaza Governorate,North Gaza Governorate,北加沙省|gouvernorat de Gaza-Nord|Gobernación de Gaza del Norte|Gouvernement Nordgaza,PS,31.55,34.5,7870263,4731200
Q181862,County Clare,County Clare,克莱尔郡|County Clare|comté de Clare|Condado de Clare,IE,52.833332,-9.0,2965479,334885
Q188953,Perak,Perak,Perak|Perak|Perak|霹雳,MY,4.75,101.0,1733041,4445076
Q188959,Covasna County,Covasna County,Kreis Covasna|Covasna|Covasna|科瓦斯納縣,RO,45.9,26.03,680428,2248621
Q188960,Tauragė County,Tauragė County,Provincia de Tauragė|Bezirk Tauragė|Tauragė|陶拉盖县,LT,55.25611,22.292778,864482,1307305
Q188963,Telšiai County,Telšiai County,Telšiai|特爾希艾縣|Provincia de Telšiai|Bezirk Telšiai,LT,56.0,22.0,864483,1211025
Q80036,Amasya Province,Amasya Province,Provincia de Amasya|Amasya|Amasya|阿马西亚省,TR,40.650276,35.83278,752014,223452
Q80051,Ağrı Province,Ağrı Province,阿勒省|Provincia de Ağrı|Ağrı|Ağrı,TR,39.718613,43.052223,325163,186433
Q127264,Yamaguchi Prefecture,Yamaguchi Prefecture,山口縣|préfecture de Yamaguchi|prefectura de Yamaguchi|Präfektur Yamaguchi,JP,34.18611,131.47028,1848681,4016543
Q127513,Kanagawa Prefecture,Kanagawa Prefecture,préfecture de Kanagawa|神奈川縣|prefectura de Kanagawa|Präfektur Kanagawa,JP,35.44775,139.64253,1860291,2689487
Q127676,Trøndelag,Trøndelag,特倫德拉格郡|Trøndelag|Trøndelag|Trøndelag,NO,63.426945,10.393056,11862827,406567
Q165575,Cova Lima Municipality,Cova Lima Municipality,科瓦利馬縣|Cova Lima|Cova-Lima|Cova Lima,TL,-9.316667,125.25,1639462,4631021
Q165582,Mérida,Mérida (state),梅里达州|Mérida|Mérida|Mérida,VE,8.516666,-71.26667,3632306,272635
Q165784,West,West Region (Cameroon),Región del Oeste|Ouest|西部区|Ouest,CM,5.4794445,10.419444,2222934,6312404
Q165956,North West,North West (South African province),Provinz Nordwest|Provincia del Noroeste|西北省|Province du Nord-Ouest,ZA,-27.0,26.0,1085598,349519
Q182487,Sar-e Pol Province,Sar-e-Pol Province,薩爾普勒省|Sar-é Pol|Sar-e Pul|Sar-i Pul,AF,35.6,66.3,1127106,
Q182493,Paktia Province,Paktia Province,帕克蒂亚省|Paktiyâ|Paktiyā|Paktia,AF,33.6741,69.3745,1131257,
Q182565,Phuket,Phuket province,Phuket|Provincia de Phuket|Phuket|普吉府,TH,7.89,98.39833,1151253,2934604
Q189541,Duhok Governorate,Duhok Governorate,杜胡克省|Dahuk|Gobernación de Duhok|Gouvernement Dahuk,IQ,37.05,43.15,97270,2969732
Q189655,Jász-Nagykun-Szolnok County,Jász–Nagykun–Szolnok County,亞斯-瑙吉孔-索爾諾克州|Jász-Nagykun-Szolnok|Jász-Nagykun-Szolnok|Komitat Jász-Nagykun-Szolnok,HU,47.25,20.5,719637,26935
Q189701,Terengganu,Terengganu,登嘉樓|Terengganu|Terengganu|Terengganu,MY,4.75,103.0,1733036,4444411
Q80011,Chiba Prefecture,Chiba Prefecture,Prefectura de Chiba|Präfektur Chiba|préfecture de Chiba|千葉縣,JP,35.604584,140.1232,2113014,2679957
Q80021,Daugavpils,Daugavpils,Daugavpils|Daugavpils|Daugavpils|陶格夫匹尔斯,LV,55.871387,26.516111,460413,1788369
Q127255,Yardimli District,Yardimli District,Yardımlı|Yardımlı|Yardımlı|亞爾德姆雷區,AZ,38.920555,48.23722,146962,3764586
Q165376,Badakhshan Province,Badakhshan Province,巴达赫尚省|Badakhchan|Badajshán|Badachschan,AF,38.0,71.0,1147745,
Q165408,Western Macedonia,Western Macedonia,Macédoine-Occidentale|Westmakedonien|periferia de Macedonia Occidental|西马其顿大区,GR,40.4,21.5,6697811,956701
Q165413,Baikonur,Baikonur,拜科努爾|Baikonur|Baikonur|Baïkonour,KZ,45.63,63.314,1538316,5295657
Q165459,Satu Mare County,Satu Mare County,Satu Mare|Satu Mare|薩圖馬雷縣|Kreis Satu Mare,RO,47.69,22.89,667869,72482
Q181882,County Carlow,County Carlow,卡洛郡|comté de Carlow|Condado de Carlow|County Carlow,IE,52.666668,-6.8333335,2965767,285977
Q182169,Eastern Division,"Eastern Division, Fiji",东部大区|Division orientale|División Este|Eastern Division,FJ,-18.5,180.0,4036647,4632580
Q182378,Putrajaya,Putrajaya,布城|Putrajaya|Putrajaya|Putrajaya,MY,2.93,101.69,1996552,4443881
Q189001,Prešov Region,Prešov Region,普雷绍夫州|région de Prešov|Región de Prešov|Eperieser Landschaftsverband,SK,49.001667,21.239445,865085,388271
Q189296,Berat County,Berat County,Qark Berat|Berat|培拉特州|condado de Berat,AL,40.633335,20.083334,865730,1252289
Q189352,Nineveh Governorate,Nineveh Governorate,Ninive|Gobernación de Nínive|Ninawa|尼尼微省,IQ,36.0,42.466667,92877,2969789
Q80088,Burdur Province,Burdur Province,布尔杜尔省|Burdur|Burdur|provincia de Burdur,TR,37.42389,30.084444,320390,2319368
Q80245,Quintana Roo,Quintana Roo,Quintana Roo|Quintana Roo|Quintana Roo|金塔納羅奧州,MX,19.6,-87.916664,3520887,2614434
Q127877,Nagano Prefecture,Nagano Prefecture,préfecture de Nagano|長野縣|Prefectura de Nagano|Präfektur Nagano,JP,36.65128,138.18094,1856210,3560284
Q128186,Saitama Prefecture,Saitama Prefecture,埼玉縣|préfecture de Saitama|prefectura de Saitama|Präfektur Saitama,JP,35.857166,139.6492,1853226,1768185
Q167001,Municipality of Zavrč,Municipality of Zavrč,Zavrč|Zavrč|Zavrč|扎夫尔奇市镇,SI,46.366665,16.05,3239247,1685745
Q167196,Kigali Province,Kigali province,Provinz Kigali|provincia de Kigali|Kigali Ville,RW,-1.91667,30.08333,6413338,
Q167199,Vaslui County,Vaslui County,Vaslui|Vaslui|Kreis Vaslui|瓦斯盧伊縣,RO,46.59,27.77,663116,2256753
Q167279,Pemagatshel District,Pemagatshel District,佩马加策尔宗|Pemagatshel|Distrito de Pemagatshel|Pemagatshel,BT,27.0,91.25,1337287,3899611
Q182591,County Wicklow,County Wicklow,威克洛郡|comté de Wicklow|Condado de Wicklow|County Wicklow,IE,53.0,-6.4166665,2960935,282760
Q182614,Brașov County,Brașov County,distrito de Brașov|布拉索夫縣|Brașov|Kreis Brașov,RO,45.79,25.28,683843,2248612
Q182624,Cluj County,Cluj County,distrito de Cluj|克卢日县|Kreis Cluj|Cluj,RO,46.775,23.5917,681291,91733
Q189710,Selangor,Selangor,雪兰莪|Selangor|Selangor|Selangor,MY,3.3333333,101.5,1733037,2932285
Q189747,Wasit Governorate,Wasit Governorate,瓦西特省|Gobernación de Wasit|al-Wasit|Wasit,IQ,32.666668,45.75,89693,3244385
Q189822,Mogilev Region,Mogilev region,莫吉廖夫州|Provincia de Maguilov|Woblast Mahiljou|voblast de Mahiliow,BY,53.7254,30.3863,625073,59162
Q80252,Sinaloa,Sinaloa,Sinaloa|Sinaloa|Sinaloa|锡那罗亚州,MX,25.002777,-107.50278,3983035,2455086
Q80269,Zacatecas,Zacatecas,薩卡特卡斯州|Zacatecas|Zacatecas|Zacatecas,MX,23.292778,-102.700554,3979840,2399704
Q80370,Batman Province,Batman Province,provincia de Batman|巴特曼省|Batman|Batman,TR,38.081944,41.407223,443186,223437
Q128196,Mie Prefecture,Mie Prefecture,préfecture de Mie|三重縣|Prefectura de Mie|Präfektur Mie,JP,34.73025,136.50867,1857352,812190
Q128978,Kilis Province,Kilis Province,基利斯省|Provincia de Kilis|Kilis|Kilis,TR,36.800835,37.12389,443213,223140
Q167485,Nuristan Province,Nuristan Province,努里斯坦省|Nourestân|Nūristān|Nuristan,AF,35.25,70.75,1444363,1674544
Q167514,Logone Oriental Region,Logone Oriental (region),東洛貢區|Logone Oriental|Región de Logone Oriental|Logone Oriental,TD,8.65,16.85,2429058,3218249
Q167668,Liepāja,Liepāja,利耶帕亚|Liepāja|Liepāja|Liepāja,LV,56.508335,21.01111,457954,1810419
Q182633,County Westmeath,County Westmeath,comté de Westmeath|韋斯特米斯郡|Condado de Westmeath|County Westmeath,IE,53.5,-7.5,2960972,335446
Q182778,Vrancea County,Vrancea County,Vrancea|Vrancea|Kreis Vrancea|弗朗恰縣,RO,45.79,26.97,662447,2260187
Q182809,Haskovo,Haskovo Province,Haskovo|Haskovo|哈斯科沃州|Oblast Chaskowo,BG,41.833332,25.916666,730436,1739545
Q189942,Northern District,Northern District (Israel),Nordbezirk|District nord|北部区|Distrito Norte,IL,32.833332,35.333332,294824,1375620
Q189952,Lääne-Viru County,Lääne-Viru County,西維魯縣|Viru occidental|Condado de Lääne-Viru|Kreis Lääne-Viru,EE,59.25,26.333334,590854,351063
Q189963,Ida-Viru County,Ida-Viru County,Viru oriental|Condado de Ida-Viru|Kreis Ida-Viru|東維魯縣,EE,59.216667,27.3,592075,350459
Q80434,Aichi Prefecture,Aichi Prefecture,愛知縣|Prefectura de Aichi|Präfektur Aichi|préfecture d'Aichi,JP,35.18017,136.90642,1865694,3560336
Q80550,Van Province,Van Province,Provincia de Van|Van|Van|凡省,TR,38.50111,43.373055,298113,223442
Q129003,French Southern and Antarctic Lands,French Southern and Antarctic Lands,法属南部和南极领地|Terres australes et antarctiques françaises|Tierras Australes y Antárticas Francesas|Französische Süd- und Antarktisgebiete,FR,-43.0,67.0,1546748,2186658
Q129352,Stepanakert,Stepanakert,Jankendi|漢肯德|Khankendi|Chankendi,AZ,39.815277,46.751945,409421,1861810
Q129352,Stepanakert,Stepanakert,Jankendi|漢肯德|Khankendi|Chankendi,AZ,39.815277,46.751945,146970,1861810
Q167764,Zavkhan Province,Zavkhan Province,扎布汗省|Zavkhan|Zavhan|Dsawchan-Aimag,MN,48.0,96.25,1516012,4074177
Q168787,Cabinda Province,Cabinda Province,卡宾达省|Cabinda|Cabinda|Provinz Cabinda,AO,-4.9341664,12.405278,2243266,422607
Q168949,Semnan Province,Semnan province,塞姆南省|Semnán|Semnan|Semnan,IR,35.234444,53.920555,116401,241474
Q182844,Herat Province,Herat Province,赫拉特省|Hérat|Herat|Herat,AF,34.0,62.0,1140025,
Q182888,Iași County,Iași County,雅西縣|Județ de Iași|Condado de Iași|Kreis Iași,RO,47.25,27.31,675809,2256747
Q182988,Dauphin Quarter,Dauphin Quarter,多芬區|Dauphin|Dauphin,LC,14.033334,-60.9,3576771,
Q183015,Samangan Province,Samangan Province,Samangân|Samangān|Samangan|萨曼甘省,AF,36.25,68.0167,1127766,
Q189968,Lääne County,Lääne County,萊內縣|Lääne|Condado de Lääne|Kreis Lääne,EE,58.916668,23.75,590856,350424
Q189974,Jõgeva County,Jõgeva County,約格瓦縣|Condado de Jõgeva|Kreis Jõgeva|Jõgeva,EE,58.7,26.4,591901,354089
Q190018,Komárom-Esztergom County,Komárom-Esztergom County,Komárom-Esztergom|Komárom-Esztergom|Komitat Komárom-Esztergom|科馬羅姆-埃斯泰爾戈姆州,HU,47.583332,18.333334,3049518,22252
Q190066,Luanda Province,Luanda Province,羅安達省|Provincia de Luanda|Provinz Luanda|Luanda,AO,-8.983,13.283,2240444,1802546
Q80903,Hidalgo,Hidalgo (state),伊達爾戈州|Hidalgo|Hidalgo|Hidalgo,MX,20.478333,-98.86361,3527115,1376490
Q80908,Campeche,Campeche,Campeche|Campeche|坎佩切州|Campeche,MX,19.0,-90.4,3531730,2568834
Q129387,Tekirdağ Province,Tekirdağ Province,泰基尔达省|Tekirdağ|Tekirdağ|provincia de Tekirdağ,TR,40.97778,27.518333,738926,223470
Q129499,Gunma Prefecture,Gunma Prefecture,préfecture de Gunma|群馬縣|Prefectura de Gunma|Präfektur Gunma,JP,36.39,139.06,1863501,1851649
Q130268,Haut-Katanga Province,Haut-Katanga Province,上加丹加省|Haut-Katanga|Alto Katanga|Haut-Katanga,CD,-11.669723,27.483334,11288213,193085
Q168953,Aïn Defla Province,Aïn Defla Province,Aïn Defla|艾因迪夫拉省|Provincia de Aïn Defla|Ain Defla,DZ,36.31389,2.163889,2508226,1283678
Q169376,Nagasaki Prefecture,Nagasaki Prefecture,préfecture de Nagasaki|長崎縣|prefectura de Nagasaki|Präfektur Nagasaki,JP,32.75,129.8675,1856156,1842151
Q169923,County Galway,County Galway,戈尔韦郡|comté de Galway|Condado de Galway|County Galway,IE,53.333332,-9.0,2964179,335444
Q183021,Nimruz Province,Nimruz Province,尼姆鲁兹省|Nimrôz|Nimruz|Nimrus,AF,31.0,62.5,1131821,1674664
Q183028,Uruzgan Province,Uruzgan Province,乌鲁兹甘省|Orozgân|Urūzgān|Urusgan,AF,32.8,66.0,1131461,
Q183032,Johor,Johor,柔佛州|Johor|Johor|Johor,MY,1.4872222,103.78111,1733049,2939653
Q190131,Diyala Governorate,Saladin Governorate,Salah ad-Din|萨拉赫丁省|Salah ad-Din|Gobernación de Saladino,IQ,34.45,43.583332,91695,3242295
Q190406,Gorj County,Gorj County,戈爾日縣|Gorj|Gorj|Kreis Gorj,RO,45.04,23.3,676898,2261275
Q80914,Tabasco,Tabasco,塔巴斯科州|Tabasco|Tabasco|Tabasco,MX,17.988056,-92.91944,3516458,2556680
Q80953,Kasaï-Oriental,Kasaï-Oriental (former province),东开赛省|Kasaï-Oriental|Kasai Oriental|Kasaï-Oriental,CD,-4.9,24.2,214138,
Q130290,Hyōgo Prefecture,Hyōgo Prefecture,prefectura de Hyōgo|préfecture de Hyōgo|兵庫縣|Präfektur Hyogo,JP,34.69125,135.18309,1862047,356912
Q130300,Miyazaki Prefecture,Miyazaki Prefecture,宮崎縣|préfecture de Miyazaki|prefectura de Miyazaki|Präfektur Miyazaki,JP,31.910833,131.42361,1856710,1842184
Q170024,Emirate of Ras Al Khaimah,Emirate of Ras Al Khaimah,哈伊马角酋长国|Ras el Khaïmah|Ras al-Jaima|Ra’s al-Chaima,AE,25.783333,55.95,291075,3766485
Q170041,Golestan Province,Golestan province,戈勒斯坦省|Golestan|Golestán|Golestan,IR,36.8393,54.4444,443792,269903
Q183036,Jowzjan Province,Jowzjan Province,朱兹詹省|Djôzdjân|Jawzjān|Dschuzdschan,AF,36.75,66.0,1139049,
Q183056,Maidan Wardak Province,Maidan Wardak Province,Vardak|Wardak|Wardak|瓦尔达克省,AF,34.4,68.4,1121863,
Q190518,Szabolcs-Szatmár-Bereg County,Szabolcs–Szatmár–Bereg County,索博尔奇-索特马尔-拜赖格州|Szabolcs-Szatmár-Bereg|Szabolcs-Szatmár-Bereg|Komitat Szabolcs-Szatmár-Bereg,HU,48.0,22.166666,715593,22268
Q190522,Somogy County,Somogy County,Komitat Somogy|Somogy|Somogy|紹莫吉州,HU,46.416668,17.583334,3045226,22225
Q190550,Moravian-Silesian Region,Moravian-Silesian Region,摩拉维亚-西里西亚州|Moravie-Silésie|Región de Moravia-Silesia|Moravskoslezský kraj,CZ,49.8,18.0,3339573,442461
Q190687,Aragua,Aragua,阿拉瓜州|Aragua|Aragua|Aragua,VE,9.95,-67.05,3649110,272746
Q81551,Konya Province,Konya Province,科尼亚省|Provincia de Konya|Konya|Konya,TR,37.8725,32.491943,306569,223133
Q81725,KwaZulu-Natal,KwaZulu-Natal,KwaZulu-Natal|KwaZulu-Natal|KwaZulu-Natal|夸祖魯-納塔爾省,ZA,-29.0,31.0,972062,349390
Q81863,Akita Prefecture,Akita Prefecture,秋田縣|préfecture d'Akita|Prefectura de Akita|Präfektur Akita,JP,39.718613,140.1025,2113124,3791413
Q130308,Kumamoto Prefecture,Kumamoto Prefecture,熊本縣|préfecture de Kumamoto|prefectura de Kumamoto|Präfektur Kumamoto,JP,32.789722,130.7414,1858419,1842185
Q130343,Federal Dependencies,Federal Dependencies of Venezuela,聯邦屬地|Dépendances fédérales|Dependencias Federales|Dependencias Federales,VE,10.929822,-65.35696,3640846,3399075
Q130553,Manisa Province,Manisa Province,马尼萨省|Provincia de Manisa|Manisa|Manisa,TR,38.749443,28.122778,304825,223168
Q130566,Maniema,Maniema,Maniema|马涅马省|Maniema|Maniema,CD,-2.95,25.95,209610,5642697
Q130576,Kasaï-Occidental,Kasai-Occidental,西开赛省|Kasaï occidental|Kasai Occidental|Kasaï-Occidental,CD,-5.9,22.45,214139,193087
Q170291,West Greece Region,Western Greece,periferia de Grecia Occidental|西希腊大区|Grèce-Occidentale|Westgriechenland,GR,38.2,21.4,6697810,910919
Q170309,Baghlan Province,Baghlan Province,巴格兰省|Baglán|Baghlân|Baglan,AF,35.87,68.93,1147537,
Q170453,Amazonas,Amazonas (Venezuelan state),Amazonas|Amazonas|Amazonas|亞馬遜州,VE,3.5,-66.0,3649302,2269815
Q183139,Trenčín Region,Trenčín Region,région de Trenčín|特倫欽州|Región de Trenčín|Trenčiansky kraj,SK,48.894165,18.040556,3343957,388267
Q183314,Khyber Pakhtunkhwa,Khyber Pakhtunkhwa,开伯尔-普什图省|Khyber Pakhtunkhwa|Khyber Pakhtunkhwa|Khyber Pakhtunkhwa,PK,34.343,72.18,1168873,3780131
Q190690,Sălaj County,Sălaj County,瑟拉日縣|Sălaj|Sălaj|Kreis Sălaj,RO,47.2,23.05,668248,91685
Q190702,Harghita County,Harghita County,哈爾吉塔縣|Harghita|Harghita|Kreis Harghita,RO,46.36,25.8,676309,2248660
Q190711,Mureș County,Mureș County,Mureș|Mureș|Kreis Mureș|穆列什縣,RO,46.59,24.61,672628,2248573
Q82089,Bolu Province,Bolu Province,Bolu|provincia de Bolu|博卢省|Bolu,TR,40.679165,31.558332,750510,223461
Q82096,Denizli Province,Denizli Province,provincia de Denizli|代尼兹利省|Denizli|Denizli,TR,37.84016,29.06982,317106,223169
Q130625,North Kivu,North Kivu,北基伍省|Nord-Kivu|Kivu del Norte|Nord-Kivu,CD,-0.55,28.8,206938,5642698
Q130626,Borno State,Borno State,博爾諾州|Borno|Borno|Borno,NG,11.5,13.0,2346794,3721167
Q130840,Eastern Cape,Eastern Cape,Cap-Oriental|Provincia Oriental del Cabo|Ostkap|東開普省,ZA,-32.0,27.0,1085593,88574
Q170462,Sarawak,Sarawak,Sarawak|Sarawak|Sarawak|砂拉越,MY,2.5,113.0,1733038,3879784
Q170568,Yazd Province,Yazd province,Yazd|Yazd|Yazd|亞茲德省,IR,31.8948,54.357,111821,3300249
Q183315,Storstrøm County,Storstrøm County,斯托海峽郡|Storstrøm|Storstrøm|Storstrøms Amt,DK,54.765278,11.8752775,,
Q183487,Varna,Varna Province,瓦爾納州|Oblast Warna|Varna|Varna,BG,43.2,27.6,726051,1437135
Q183498,Bratislava Region,Bratislava Region,région de Bratislava|布拉迪斯拉發州|Región de Bratislava|Bratislavský kraj,SK,48.14389,17.109722,3343955,388265
Q190716,Central Province,"Central Province, Sri Lanka",中央省 (斯里蘭卡)|Province du Centre|Provincia Central|Zentralprovinz,LK,7.3333335,80.75,1249296,4630835
Q190718,Central Province,"Central Province, Zambia",中央省 (赞比亚)|Province Centrale|Provincia Central|Zentralprovinz,ZM,-14.0,29.0,921064,318861
Q190922,Anzoátegui,Anzoátegui,Anzoátegui|Anzoátegui|Anzoátegui|安索阿特吉州,VE,8.95,-64.25,3649198,2267150
Q82112,State of Mexico,State of Mexico,墨西哥州|État de Mexico|Estado de México|México,MX,19.354166,-99.63084,3523272,1376489
Q82681,Tlaxcala,Tlaxcala,Tlaxcala|Tlaxcala|Tlaxcala|特拉斯卡拉州,MX,19.428888,-98.160835,3515359,1375274
Q131198,Heard Island and McDonald Islands,Heard Island and McDonald Islands,赫德島和麥克唐納群島|îles Heard-et-MacDonald|Islas Heard y McDonald|Heard und McDonaldinseln,AU,-53.09353,73.517,1547314,2177227
Q131277,Gifu Prefecture,Gifu Prefecture,岐阜縣|préfecture de Gifu|Prefectura de Gifu|Präfektur Gifu,JP,35.391193,136.7222,1863640,760746
Q170570,Ilam Province,Ilam province,伊拉姆省|Ilam|Ilam|Ilam,IR,33.6384,46.4226,130801,229766
Q171314,Eastern Macedonia and Thrace,Eastern Macedonia and Thrace,periferia de Macedonia Oriental y Tracia|东马其顿和色雷斯大区|Macédoine-Orientale-et-Thrace|Ostmakedonien und Thrakien,GR,41.2,25.0,6697803,937937
Q171382,Bamyan Province,Bamyan Province,巴米扬省|Bâmiyân|Bamiyán|Bamiyan,AF,34.75,67.25,1147239,
Q183539,County Louth,County Louth,comté de Louth|condado de Louth|County Louth|劳斯郡,IE,53.833332,-6.5,2962793,1763195
Q183544,County Meath,County Meath,comté de Meath|Condado de Meath|County Meath|米斯郡,IE,53.666668,-6.6666665,2962661,282818
Q183640,Banská Bystrica Region,Banská Bystrica Region,班斯卡-比斯特里察州|région de Banská Bystrica|Región de Banská Bystrica|Banskobystrický kraj,SK,48.72972,19.149166,3343954,388270
Q190930,Vysočina Region,Vysočina Region,维索奇纳州|Región de Vysočina|Kraj Vysočina|Vysočina,CZ,49.4,15.7,3339538,442453
Q191061,Grodno Region,Grodno region,Provincia de Grodno|Woblast Hrodna|Hrodna|格羅德諾州,BY,53.75,25.333334,628035,59275
Q191065,Dolj County,Dolj County,多爾日縣|Kreis Dolj|Dolj|Dolj,RO,44.17,23.7,679134,2366970
Q83069,Sakarya Province,Sakarya Province,萨卡里亚省|Provincia de Sakarya|Sakarya|Sakarya,TR,40.697224,30.456667,740352,223462
Q83073,Aksaray Province,Aksaray Province,Aksaray|Aksaray|provincia de Aksaray|阿克萨赖省,TR,38.430832,33.86222,443185,154454
Q131281,Ishikawa Prefecture,Ishikawa Prefecture,préfecture d'Ishikawa|石川縣|Prefectura de Ishikawa|Präfektur Ishikawa,JP,36.595,136.625,1861387,3794726
Q131287,Nara Prefecture,Nara Prefecture,préfecture de Nara|奈良縣|Prefectura de Nara|Präfektur Nara,JP,34.685196,135.83295,1855608,358631
Q171440,Mbomou River,Mbomou River,Mbomou|Río Bomu|Mbomou|姆博穆河,CF,4.129,22.436,218268,
Q171440,Mbomou River,Mbomou River,Mbomou|Río Bomu|Mbomou|姆博穆河,CF,5.0304,27.4412,218268,
Q171551,South Khorasan Province,South Khorasan province,Khorassan du Sud|Jorasán del Sur|Süd-Chorasan|南呼羅珊省,IR,32.8653,59.2164,6201374,537658
Q171702,Chaharmahal and Bakhtiari Province,Chaharmahal and Bakhtiari province,恰哈馬哈勒－巴赫蒂亞里省|Tchaharmahal et Bakhtiari|Chahar y Bajtiari|Tschahār Mahāl und Bachtiyāri,IR,32.3275,50.8546,139677,230033
Q184228,Žilina region,Žilina Region,日利纳州|région de Žilina|Región de Žilina|Žilinský kraj,SK,49.22278,18.739445,3056506,388269
Q184445,County Offaly,County Offaly,奧法利郡|comté d'Offaly|Condado de Offaly|County Offaly,IE,53.25,-7.5,2962187,335442
Q184469,County Kerry,County Kerry,Kerry|凱里郡|comté de Kerry|Condado de Kerry,IE,52.166668,-9.75,2963517,332622
Q191071,Hunedoara County,Hunedoara County,Hunedoara|Hunedoara|Hunedoara|胡內多阿拉縣,RO,45.78,22.93,675917,2248737
Q191075,Baghdad Governorate,Baghdad Governorate,巴格達省|Bagdad|Gobernación de Bagdad|Gouvernorat Bagdad,IQ,33.333332,44.433334,98180,3242293
Q191078,Tulcea County,Tulcea County,distrito de Tulcea|圖爾恰縣|Kreis Tulcea|Tulcea,RO,44.98,28.77,664517,2367044
Q83102,Edirne Province,Edirne Province,provincia de Edirne|埃迪尔内省|Edirne|Edirne,TR,41.12,26.520555,747711,223465
Q83239,Bitlis Province,Bitlis Province,provincia de Bitlis|比特利斯省|Bitlis|Bitlis,TR,38.525833,42.38778,321022,223441
Q131320,Shizuoka Prefecture,Shizuoka Prefecture,靜岡縣|Prefectura de Shizuoka|Präfektur Shizuoka|préfecture de Shizuoka,JP,34.976944,138.383,1851715,3793581
Q131323,Misrata,Misrata,米蘇拉塔|Misrata|Misurata|Misrata,LY,32.377777,15.090138,2214846,
Q172216,Coral Sea Islands,Coral Sea Islands,îles de la mer de Corail|珊瑚海群岛|islas del mar del Coral|Korallenmeerinseln,AU,-19.090834,150.90167,2170371,3225677
Q173332,County Kildare,County Kildare,基尔代尔郡|comté de Kildare|Condado de Kildare|County Kildare,IE,53.2,-6.8,2963435,285833
Q173500,County Dublin,County Dublin,comté de Dublin|Condado de Dublín|County Dublin|都柏林地區,IE,53.416668,-6.25,2964573,282800
Q184797,Sibiu County,Sibiu County,Sibiu|Sibiu|錫比烏縣|Kreis Sibiu,RO,45.87,24.23,667267,2248586
Q184981,Shumen,Shumen Province,舒門州|Choumen|Shumen|Oblast Schumen,BG,43.25,27.0,864555,1739546
Q185036,Pärnu County,Pärnu County,派爾努縣|Condado de Pärnu|Kreis Pärnu|Pärnu,EE,58.416668,24.583334,589576,350303
Q191299,Bengo Province,Bengo Province,Bengo|Bengo|本哥省|Provinz Bengo,AO,-8.783334,13.983334,2243598,1802539
Q191346,Pahang,Pahang,彭亨|Pahang|Pahang|Pahang,MY,3.75,102.5,1733042,4444595
Q191604,Heves County,Heves County,Heves|Komitat Heves|Heves|赫維什州,HU,47.833332,20.25,720002,22273
Q83077,Kars Province,Kars Province,Provinz Kars|Province de Kars|卡尔斯省|Província de Kars,TR,40.454723,43.060276,743942,186431
Q83081,Diyarbakır Province,Diyarbakır Province,provincia de Diyarbakır|迪亚巴克尔省|Diyarbakır|Diyarbakır,TR,38.142223,40.27111,316540,223435
Q131290,Ganja,"Ganja, Azerbaijan",Gəncə|Gəncə|Gandja|占贾,AZ,40.682777,46.360554,586523,
Q131290,Ganja,"Ganja, Azerbaijan",Gəncə|Gəncə|Gandja|占贾,AZ,40.682777,46.360554,828298,
Q131293,Mardin Province,Mardin Province,马尔丁省|Provincia de Mardin|Mardin|Mardin,TR,37.31775,40.71533,304794,223436
Q131314,Wakayama Prefecture,Wakayama Prefecture,préfecture de Wakayama|和歌山县|Prefectura de Wakayama|Präfektur Wakayama,JP,34.22603,135.1675,1848938,908959
Q172052,Badghis Province,Badghis Province,Bâdghîs|Badghís|Badghis|巴德吉斯省,AF,35.0,63.75,1147707,
Q184548,Nitra Region,Nitra Region,région de Nitra|尼特拉州|Región de Nitra|Nitriansky kraj,SK,48.306946,18.08639,3343956,388268
Q184594,County Waterford,County Waterford,comté de Waterford|County Waterford|Waterford|沃特福德郡,IE,52.25,-7.5,2960991,283426
Q184599,County Wexford,County Wexford,韦克斯福德郡|Wexford|Condado de Wexford|County Wexford,IE,52.5,-6.6666665,2960963,285981
Q184618,County Tipperary,County Tipperary,蒂珀雷里郡|comté de Tipperary|Condado de Tipperary|County Tipperary,IE,52.666668,-7.8333335,2961191,334372
Q184760,County Monaghan,County Monaghan,莫纳亨郡|comté de Monaghan|Condado de Monaghan|Monaghan,IE,54.244,-7.04,2962567,283647
Q191091,Karlovy Vary Region,Karlovy Vary Region,Región de Karlovy Vary|Karlovy Vary|Karlovarský kraj|卡羅維發利州,CZ,50.2,12.7,3339539,442314
Q191120,Jēkabpils,Jēkabpils,葉卡布皮爾斯|Jēkabpils|Jēkabpils|Jēkabpils,LV,56.4975,25.866388,459283,1806938
Q191164,Bolívar,Bolívar (state),玻利瓦爾州|Bolívar|Bolívar|Bolívar,VE,5.95,-63.333332,3648106,2269155
Q191174,Miranda,Miranda (state),Miranda|Miranda|Miranda|米兰达州,VE,10.25,-66.416664,3632191,272673
Q191186,Carabobo,Carabobo,卡拉沃沃州|Carabobo|Carabobo|Carabobo,VE,10.183333,-67.96667,3646751,272745
Q83273,Ibaraki Prefecture,Ibaraki Prefecture,茨城縣|préfecture d'Ibaraki|Prefectura de Ibaraki|Präfektur Ibaraki,JP,36.34172,140.44684,2112669,2682940
Q83274,Hatay Province,Hatay Province,哈塔伊省|Provincia de Hatay|Hatay|Hatay,TR,36.2,36.15,312394,223122
Q83342,Bartın Province,Bartın Province,巴尔滕省|Bartın|Bartın|Bartın,TR,41.604443,32.511112,862467,223458
Q131358,Shiga Prefecture,Shiga Prefecture,préfecture de Shiga|滋賀縣|Prefectura de Shiga|Präfektur Shiga,JP,35.00436,135.8685,1852553,357800
Q131384,Malatya Province,Malatya Province,马拉蒂亚省|Provincia de Malatya|Malatya|Malatya,TR,38.348057,38.31778,304919,223426
Q173616,South Aegean Region,South Aegean,Égée-Méridionale|Südliche Ägäis|periferia del Egeo Meridional|南爱琴大区,GR,36.8,26.2,6697808,1851752
Q173620,North Aegean Region,North Aegean,periferia del Egeo Septentrional|北爱琴大区|Égée-Septentrionale|Nördliche Ägäis,GR,38.7,26.0,6697806,958517
Q185221,Malacca,Malacca,Malakka|马六甲|Malacca|Malaca,MY,2.2,102.251,1733035,2939673
Q185309,Buzău County,Buzău County,Buzău|Buzău|Kreis Buzău|布澤烏縣,RO,45.27,26.77,683121,2355511
Q191616,Békés County,Békés County,貝凱什州|Békés|Békés|Komitat Békés,HU,46.7375,21.044722,722433,22266
Q191625,Tolna County,Tolna County,Tolna|Tolna|托爾瑙州|Komitat Tolna,HU,46.5,18.583334,3043845,22239
Q191653,Teleorman County,Teleorman County,特列奧爾曼縣|Kreis Teleorman|Teleorman|Teleorman,RO,43.656944,25.356945,665283,2366986
Q83965,Kocaeli Province,Kocaeli Province,Kocaeli|科贾埃利省|Provincia de Kocaeli|Kocaeli,TR,40.764446,29.945,742865,223473
Q89959,French Community of Belgium,French Community of Belgium,比利时法语社群|Fédération Wallonie-Bruxelles|Comunidad francesa de Bélgica|Französische Gemeinschaft Belgiens,BE,50.84667,4.3525,,78967
Q90027,German-speaking Community of Belgium,German-speaking Community of Belgium,比利時德語社群|communauté germanophone de Belgique|Comunidad germanófona de Bélgica|Deutschsprachige Gemeinschaft Belgiens,BE,50.419,6.26564,,2425209
Q93195,Ulster,Ulster,阿爾斯特省|Ulster|Úlster|Provinz Ulster,IE,54.740723,-6.7445555,7521316,278664
Q131387,Muş Province,Muş Province,穆什省|provincia de Muş|Muş|Muş,TR,39.000557,41.82722,304041,223440
Q131438,Munster,Munster,芒斯特省|Munster|Munster|Munster,IE,52.25,-9.0,7521315,278750
Q131597,Kırklareli Province,Kırklareli Province,Provincia de Kırklareli|Kırklareli|Kırklareli|克尔克拉雷利省,TR,41.68111,27.47139,743165,223469
Q173808,Kandahar Province,Kandahar Province,坎大哈省|Kandahâr|Kandahar|Kandahar,AF,31.0,65.5,1138335,
Q173816,Kapisa Province,Kapisa Province,卡比萨省|Kâpîssâ|Kāpīsā|Kapisa,AF,35.0,69.7,1138255,
Q185368,Hajdú-Bihar County,Hajdú–Bihar County,豪伊杜-比豪爾州|Hajdú-Bihar|Hajdú-Bihar|Komitat Hajdú-Bihar,HU,47.416668,21.5,720293,22267
Q185371,Coast Province,Coast Province,Provincia Costera|Côte|Coast|滨海省,KE,-3.0,39.5,199247,
Q185374,Zala County,Zala County,Zala|Zala|佐洛州|Komitat Zala,HU,46.666668,16.833334,3042613,22238
Q185442,Laghman Province,Laghman Province,拉格曼省|Laghmân|Laġmān|Laghman,AF,34.66,70.2,1135022,
Q191670,Ilfov County,Ilfov County,伊爾福夫縣|Ilfov|Ilfov|Kreis Ilfov,RO,44.61,26.12,865518,2366996
Q191717,Mehedinți County,Mehedinți County,梅赫丁茨縣|Mehedinți|Mehedinți|Kreis Mehedinți,RO,44.63,22.88,673612,2366962
Q191792,Bayan-Ölgii Province,Bayan-Ölgii Province,巴彦乌列盖省|Bayan-Ölgii|Bayan-Ölgiy|Bajan-Ölgii-Aimag,MN,48.3,89.5,1516278,3382266
Q191813,Põlva County,Põlva County,珀爾瓦縣|Põlva|Condado de Põlva|Kreis Põlva,EE,58.083332,27.083334,589373,352454
Q93209,Hakkâri Province,Hakkâri Province,哈卡里省|Hakkari|Provincia de Hakkâri|Hakkâri,TR,37.46611,44.064445,312888,174742
Q102377,Blekinge County,Blekinge County,布萊金厄省|Provincia de Blekinge|Blekinge län|Blekinge,SE,56.283333,15.116667,2721357,54413
Q103093,Västra Götaland County,Västra Götaland County,Provincia de Gotia Occidental|西约塔兰省|comté de Västra Götaland|Västra Götalands län,SE,58.217026,11.733398,3337386,54367
Q131664,Qom Province,Qom province,庫姆省|Provincia de Qom|Ghom|Qom,IR,34.6456,50.8798,443794,537702
Q132409,Nalut,Nalut,纳鲁特|Nalout|Nalut|Nalut,LY,31.86861,10.981112,2214433,
Q132410,Mpumalanga,Mpumalanga,姆普马兰加省|Mpumalanga|Mpumalanga|Mpumalanga,ZA,-26.0,30.0,1085595,349556
Q132418,Northern Cape,Northern Cape,北開普省|Cap-Nord|Provincia Septentrional del Cabo|Nordkap,ZA,-30.0,22.0,1085596,86720
Q173821,Helmand Province,Helmand Province,赫尔曼德省|Helmand|Helmand|Helmand,AF,31.0,64.0,1140043,1674573
Q173822,Brest Region,Brest region,布列斯特州|Provincia de Brest|Breszkaja Woblasz|Brest,BY,52.382504,25.199848,629631,59189
Q173830,Faryab Province,Faryab Province,法利亚布省|Fâryâb|Fāryāb|Faryab,AF,36.0,65.0,1142226,
Q192061,Viljandi County,Viljandi County,維爾揚迪縣|Condado de Viljandi|Kreis Viljandi|Viljandi,EE,58.333332,25.583334,587590,352449
Q192232,Jerusalem District,Jerusalem District,district de Jérusalem|Distrito de Jerusalén|Bezirk Jerusalem|耶路撒冷区,IL,31.75389,35.036945,293198,1384720
Q103699,Gävleborg County,Gävleborg County,耶夫勒堡省|Gävleborg|Provincia de Gävleborg|Gävleborgs län,SE,60.78062,16.655273,2712411,52832
Q103707,Kalmar County,Kalmar County,卡爾馬省|Provincia de Kalmar|Kalmar län|Kalmar,SE,56.733334,15.9,2702259,54417
Q103732,Dalarna County,Dalarna County,Provincia de Dalecarlia|达拉纳省|Dalécarlie|Dalarnas län,SE,60.67856,15.600586,2699767,52834
Q132929,Toyama Prefecture,Toyama Prefecture,préfecture de Toyama|富山縣|Prefectura de Toyama|Präfektur Toyama,JP,36.695305,137.2113,1849872,3793529
Q132936,Okayama Prefecture,Okayama Prefecture,岡山縣|préfecture d'Okayama|Prefectura de Okayama|Präfektur Okayama,JP,34.661667,133.93472,1854381,3794962
Q132945,Bushehr Province,Bushehr province,布什爾省|Bouchehr|Buschehr|Bushehr,IR,28.9184,50.8382,139816,269575
Q176164,Christ Church Nichola Town Parish,Christ Church Nichola Town Parish,基督教會尼古拉鎮區|Christ Church Nichola Town|Parroquia de Christ Church Nichola Town|Christ Church Nichola Town,KN,17.367779,-62.760277,3575476,9280609
Q177799,Moyen-Chari Region,Moyen-Chari (region),中沙里區|Región de Moyen-Chari|Moyen-Chari|Moyen-Chari,TD,9.1461115,18.384167,2427315,3218253
Q178136,Sololá Department,Sololá Department,索洛拉省|Sololá|Departamento de Sololá|Departamento Sololá,GT,14.773889,-91.1875,3588697,214713
Q178283,County Limerick,County Limerick,comté de Limerick|Condado de Limerick|County Limerick|利默里克郡,IE,52.5,-8.75,2962941,334898
Q186195,Baranya County,Baranya County,巴蘭尼亞州|Komitat Baranya|Baranya|Baranya,HU,46.083332,18.233334,3055399,22234
Q186220,County Longford,County Longford,朗福德郡|comté de Longford|Condado de Longford|County Longford,IE,53.666668,-7.75,2962839,335445
Q186295,Košice Region,Košice Region,région de Košice|Región de Košice|Košický kraj|科希策州,SK,48.71611,21.863056,865084,388272
Q192811,Tel Aviv District,Tel Aviv District,特拉维夫区|district de Tel Aviv|Distrito de Tel Aviv|Bezirk Tel Aviv,IL,32.083332,34.8,293396,1400916
Q192849,Vlorë County,Vlorë County,发罗拉州|Condado de Vlorë|Qark Vlora|Vlorë,AL,40.166668,19.75,3344952,1255521
Q192853,Durrës County,Durrës County,都拉斯州|condado de Durrës|Qark Durrës|Durrës,AL,41.5,19.583334,3344947,1249872
Q103659,Skåne County,Skåne County,斯科讷省|comté de Scanie|Provincia de Escania|Skåne län,SE,55.995308,13.4417715,3337385,54409
Q103659,Skåne County,Skåne County,斯科讷省|comté de Scanie|Provincia de Escania|Skåne län,SE,55.995308,13.4417715,2678287,54409
Q103672,Jönköping County,Jönköping County,Jönköping|延雪平省|Provincia de Jönköping|Jönköpings län,SE,57.75,14.2,2702976,54374
Q103679,Jämtland County,Jämtland County,Provincia de Jemtia|耶姆特兰省|Jämtlands län|Jämtland,SE,63.0,14.66667,2703330,52826
Q132637,Mersin Province,Mersin Province,梅尔辛省|Mersin|Provincia de Mersin|Mersin,TR,36.67861,33.80528,311728,223131
Q132705,Niigata Prefecture,Niigata Prefecture,préfecture de Niigata|新潟縣|Prefectura de Niigata|Präfektur Niigata,JP,37.902473,139.02316,1855429,3559887
Q173988,Moxico Province,Moxico Province,莫希科省|Provinz Moxico|Moxico|Moxico,AO,-11.791667,19.90611,875996,1802549
Q174010,Kermanshah Province,Kermanshah province,克爾曼沙阿省|Kermanchah|Kermanshah|Kermānschāh,IR,34.3,47.066666,128222,241037
Q174765,Middlesex County,"Middlesex County, Jamaica",County Middlesex|comté du Middlesex|米德爾塞克斯郡|Condado de Middlesex,JM,18.15,-77.2,3489497,
Q175021,Emirate of Umm Al Quwain,Emirate of Umm Al Quwain,乌姆盖万酋长国|Umm al-Qaywayn|Umm al-Qaiwain|Oumm al Qaïwaïn,AE,25.55,55.55,290595,3766487
Q185575,Paktika Province,Paktika Province,帕克蒂卡省|Paktîkâ|Paktīkā|Paktika,AF,32.5,68.8,1131256,
Q185586,Timiș County,Timiș County,Kreis Timiș|蒂米什縣|Timiș|Timiș,RO,45.78,21.35,665091,2366863
Q192352,Rapla County,Rapla County,Rapla|拉普拉縣|Condado de Rapla|Kreis Rapla,EE,58.916668,24.75,589115,353779
Q192362,Valga County,Valga County,condado de Valga|瓦爾加縣|Valga|Kreis Valga,EE,57.866665,26.166666,587875,351379
Q192370,Tartu County,Tartu County,Condado de Tartu|Kreis Tartu|Tartu|塔爾圖縣,EE,58.366665,26.716667,588334,351246
Q103686,Norrbotten County,Norrbotten County,北博滕省|Norrbotten|Provincia de Norrbotten|Norrbottens län,SE,67.0,20.0,604010,52824
Q103691,Halland County,Halland County,哈兰省|comté de Halland|Provincia de Halland|Hallands län,SE,56.75,13.0,2708794,54403
Q132720,Yamanashi Prefecture,Yamanashi Prefecture,山梨縣|Prefectura de Yamanashi|Präfektur Yamanashi|préfecture de Yamanashi,JP,35.66414,138.56842,1848649,3578391
Q132751,Shimane Prefecture,Shimane Prefecture,préfecture de Shimane|島根縣|Prefectura de Shimane|Präfektur Shimane,JP,35.47222,133.05028,1852442,3346137
Q175459,Yevlakh,Yevlakh,葉夫拉赫|Ievlakh|Yevlax|Yevlax,AZ,40.61722,47.15,584649,
Q175459,Yevlakh,Yevlakh,葉夫拉赫|Ievlakh|Yevlax|Yevlax,AZ,40.61722,47.15,828307,
Q175706,Guéra Region,Guéra (province),Región de Guéra|Guéra|Guéra|蓋拉區,TD,12.182777,18.684723,2431555,3106508
Q176081,East Azarbaijan Province,East Azerbaijan province,Azerbaïdjan oriental|Azerbaiyán Oriental|Ost-Aserbaidschan|東阿塞拜疆省,IR,38.0766,46.28,142549,2232180
Q185700,Vitebsk Region,Vitebsk region,维捷布斯克州|Vitebsk|Provincia de Vítebsk|Wizebskaja Woblasz,BY,55.333332,29.0,620134,59506
Q185752,Khost Province,Khost Province,霍斯特省|Khôst|Chost|Jost,AF,33.4,69.9,1444362,
Q185845,Haifa District,Haifa District,海法区|district de Haïfa|Distrito de Haifa|Bezirk Haifa,IL,32.583332,35.0,294800,1400966
Q185944,Kelantan,Kelantan,吉兰丹|Kelantan|Kelantan|Kelantan,MY,5.25,102.0,1733044,4443571
Q192536,Zlín Region,Zlín Region,兹林州|Región de Zlín|Zlínský kraj|Zlín,CZ,49.2,17.7,3339578,442449
Q192697,South Moravian Region,South Moravian Region,Moravie-du-Sud|Región de Moravia Meridional|Jihomoravský kraj|南摩拉維亞州,CZ,49.1,16.6,3339536,442311
Q192702,Ústí nad Labem Region,Ústí nad Labem Region,烏斯季州|région d'Ústí nad Labem|Región de Ústí nad Labem|Ústecký kraj,CZ,50.5,13.85,3339577,442452
Q103738,Gotland County,Gotland County,哥得兰省|Provincia de Gotland|Gotlands län|Gotland,SE,57.5,18.5,2711508,941530
Q133083,Gauteng,Gauteng,Gauteng|Gauteng|Gauteng|豪登省,ZA,-26.0,28.0,1085594,349344
Q133879,Fukui Prefecture,Fukui Prefecture,préfecture de Fukui|Prefectura de Fukui|Präfektur Fukui|福井縣,JP,36.065193,136.22166,1863983,357112
Q133888,Ashmore and Cartier Islands,Ashmore and Cartier Islands,阿什莫尔和卡捷群岛|Îles Ashmore-et-Cartier|Islas Ashmore y Cartier|Ashmore- und Cartierinseln,AU,-12.258333,123.041664,2077507,2559345
Q133924,Oita Prefecture,Ōita Prefecture,大分县|prefectura de Oita|Präfektur Ōita|préfecture d'Ōita,JP,33.238056,131.6125,1854484,356911
Q133935,Tottori Prefecture,Tottori Prefecture,鳥取縣|Prefectura de Tottori|Präfektur Tottori|préfecture de Tottori,JP,35.503887,134.2375,1849890,3285636
Q178382,Jūrmala,Jūrmala,尤爾馬拉|Jurmala|Jūrmala|Jūrmala,LV,56.97222,23.796944,459201,
Q178382,Jūrmala,Jūrmala,尤爾馬拉|Jurmala|Jūrmala|Jūrmala,LV,56.9665,23.72211,459201,
Q186392,Ghor Province,Ghor Province,古爾省|Ghôr|Ġawr|Ghor,AF,34.519722,65.255,1141103,
Q186395,Takhar Province,Takhar Province,Tachar|塔哈尔省|Takhâr|Tahār,AF,36.7,69.8,1123230,
Q186410,Šiauliai County,Šiauliai County,Provincia de Šiauliai|Bezirk Šiauliai|Šiauliai|希奧利艾縣,LT,56.0,23.333334,864481,1256237
Q192866,Dibër County,Dibër County,迪勃拉州|Dibër|condado de Dibër|Qark Dibra,AL,41.583332,20.25,865731,1249567
Q192882,Najaf Governorate,Najaf Governorate,納傑夫省|An-Najaf|Gobernación de Nayaf|Gouvernement Nadschaf,IQ,31.116667,43.8,98862,
Q104891,Västernorrland County,Västernorrland County,Provincia de Vestronorlandia|西诺尔兰省|Västernorrland|Västernorrlands län,SE,62.739723,16.93,2664292,52827
Q104926,Uppsala County,Uppsala County,乌普萨拉省|Provincia de Upsala|Uppsala län|Uppsala,SE,59.858334,17.65,2666218,54220
Q104940,Östergötland County,Östergötland County,东约特兰省|Östergötland|Provincia de Östergötland|Östergötlands län,SE,58.410557,15.613611,2685867,940675
Q134417,Markazi Province,Markazi province,Markazi|Markazi|Markazi|中央省,IR,34.61861,49.944168,124763,229958
Q134907,Limpopo,Limpopo,林波波省|Provincia de Limpopo|Limpopo|Limpopo,ZA,-24.0,29.5,1085597,349547
Q139126,Zabul Province,Zabul Province,Zabol|Zābul|Zabul|扎布尔省,AF,32.1,67.1,1121143,
Q139626,Équateur,Équateur (former province),Équateur|Équateur|Équateur|赤道省,CD,0.047647,18.256,216661,
Q139907,Manawatū-Whanganui Region,Manawatū-Whanganui,马纳瓦图-旺阿努伊|Manawatu-Wanganui|Manawatu-Wanganui|Manawatū-Whanganui,NZ,-39.6,175.6,2179671,1638992
Q179325,County Sligo,County Sligo,comté de Sligo|Condado de Sligo|County Sligo|斯萊戈郡,IE,54.25,-8.666667,2961422,4085166
Q179424,County Donegal,County Donegal,多尼戈爾郡|comté de Donegal|Condado de Donegal|County Donegal,IE,54.92,-8.0,2964751,4085165
Q179437,County Roscommon,County Roscommon,County Roscommon|comté de Roscommon|Condado de Roscommon|羅斯康芒郡,IE,53.75,-8.25,2961731,335443
Q187402,County Cavan,County Cavan,卡文郡|comté de Cavan|Condado de Cavan|County Cavan,IE,53.916668,-7.25,2965534,283679
Q187677,Vas County,Vas County,沃什州|Komitat Vas|Vas|Vas,HU,47.166668,16.75,3043047,22250
Q187693,Fejér County,Fejér County,費耶爾州|Fejér|Fejér|Komitat Fejér,HU,47.166668,18.583334,3053028,22255
Q193266,Liberec Region,Liberec Region,利贝雷茨州|région de Liberec|Región de Liberec|Liberecký kraj,CZ,50.7,15.0,3339541,442455
Q193268,Kirkuk Governorate,Kirkuk Governorate,基爾庫克省|Gobernación de Kirkuk|Kirkouk|Kirkuk,IQ,35.366665,44.133335,98410,2969788
Q104746,Kronoberg County,Kronoberg County,克鲁努贝里省|Provincia de Kronoberg|Kronobergs län|Kronoberg,SE,56.79,14.44,2699050,54412
Q104877,Västerbotten County,Västerbotten County,西博滕省|Västerbotten|Västerbottens län|Provincia de Vestrobotnia,SE,64.344666,18.314209,2664415,52825
Q134411,West Azarbaijan Province,West Azerbaijan province,西亞塞拜然省|Azerbaïdjan occidental|West-Aserbaidschan|Azerbaiyán Occidental,IR,37.5528,45.0759,142550,241593
Q134413,Sinop Province,Sinop Province,provincia de Sinope|锡诺普省|Sinop|Sinop,TR,41.609165,34.901943,739598,223457
Q178872,Saint-Louis,Saint-Louis region,聖路易區|Saint-Louis|Saint-Louis|Region Saint-Louis,SN,16.216667,-14.8,2246451,3046921
Q178994,Australian Antarctic Territory,Australian Antarctic Territory,澳洲南極洲領地|Territoire antarctique australien|Territorio Antártico Australiano|Australisches Antarktis-Territorium,AU,-75.0,102.5,6635262,3394111
Q179029,Sabah,Sabah,沙巴州|Sabah|Sabah|Sabah,MY,5.25,117.0,1733039,3879783
Q186838,Vâlcea County,Vâlcea County,Vâlcea|Kreis Vâlcea|distrito de Vâlcea|沃爾恰縣,RO,45.08,24.11,662892,2261289
Q187334,Al Anbar Governorate,Al Anbar Governorate,安巴尔省|Gobernación de Ambar|al-Anbar|Al-Anbar,IQ,32.9,41.6,99592,3242292
Q187373,Hamadan Province,Hamadan province,哈馬丹省|Hamedan|Hamadán|Hamadan,IR,34.7982,48.5146,132142,241038
Q192959,Minsk Region,Minsk region,Provincia de Minsk|Woblast Minsk|voblast de Minsk|明斯克州,BY,53.666668,27.75,625142,59752
Q193031,Csongrád-Csanád County,Csongrád-Csanád County,琼格拉德-乔纳德州|Csongrád-Csanád|Csongrád-Csanád|Komitat Csongrád-Csanád,HU,46.416668,20.25,721589,22265
Q193044,Ialomița County,Ialomița County,Ialomița|Kreis Ialomița|Ialomița|雅洛米察縣,RO,44.64,27.3,675848,2355517
Q193055,Giurgiu County,Giurgiu County,久爾久縣|Kreis Giurgiu|Giurgiu|Giurgiu,RO,44.16,25.9,677104,2366987
Q104036,Ventspils,Ventspils,文茨皮尔斯|Ventspils|Ventspils|Ventspils,LV,57.38972,21.564444,454311,93906
Q104231,Stockholm County,Stockholm County,斯德哥爾摩省|comté de Stockholm|condado de Estocolmo|Stockholms län,SE,59.333332,18.166666,2673722,54391
Q104257,Örebro County,Örebro County,厄勒布鲁省|Provincia de Örebro|Örebro län|Örebro,SE,59.266666,15.216667,2686655,54222
Q134093,Kōchi Prefecture,Kōchi Prefecture,préfecture de Kōchi|高知縣|Prefectura de Kōchi|Präfektur Kōchi,JP,33.559444,133.53084,1859133,3795031
Q134187,Kırşehir Province,Kırşehir Province,Provincia de Kırşehir|Kırşehir|Kırşehir|克尔谢希尔省,TR,39.32389,34.129166,307513,154452
Q134228,Ardabil Province,Ardabil province,阿爾達比勒省|Provincia de Ardebil|Ardabil|Ardabil,IR,38.2514,48.2973,413931,269635
Q134386,Kurdistan Province,Kurdistan province,Kurdistan|Kurdistán|Kurdistan|庫爾德斯坦省,IR,35.72778,46.966946,126584,241546
Q178471,Nangarhar Province,Nangarhar Province,Nangarhar|Nangarhar|楠格哈尔省|Nangarhâr,AF,34.25,70.5,1132366,
Q178626,County Mayo,County Mayo,梅奧郡|comté de Mayo|Condado de Mayo|County Mayo,IE,53.9,-9.25,2962666,338539
Q178861,Botoșani County,Botoșani County,distrito de Botoșani|博托沙尼縣|Kreis Botoșani|Botoșani,RO,47.84,26.82,684038,2256729
Q186418,Kunduz Province,Kunduz Province,昆都士省|Kondôz|Qundūz|Kunduz,AF,36.8,68.8,1135690,1674564
Q186466,Almaty Region,Almaty Region,Almaty|oblys d'Almaty|provincia de Almatý|阿拉木圖州,KZ,45.0,78.0,1537162,215718
Q192942,Uvs Province,Uvs Province,Uvs|Uws-Aimag|Uvs|乌布苏省,MN,49.5,92.5,1514967,270059
Q192945,Govi-Altai Province,Govi-Altai Province,戈壁阿尔泰省|Govi-Altai|Govi-Altay|Gobi-Altai-Aimag,MN,45.5,96.0,1515917,270054
Q105075,Västmanland County,Västmanland County,西曼兰省|Västmanland|Provincia de Västmanland|Västmanlands län,SE,59.616665,16.533333,2664179,54221
Q139918,Waikato Region,Waikato,懷卡托|Waikato|Waikato|Waikato,NZ,-37.8,175.4,2180293,2094142
Q140083,Marlborough District,Marlborough District,马尔堡|Marlborough|Marlborough|Marlborough,NZ,-41.883335,173.66667,2187304,4266977
Q140083,Marlborough District,Marlborough District,马尔堡|Marlborough|Marlborough|Marlborough,NZ,-41.883335,173.66667,7910052,4266977
Q140207,Taranaki Region,Taranaki,塔拉纳基大区|Taranaki|Taranaki|Taranaki,NZ,-39.3,174.13333,2181872,1643812
Q140246,Gisborne District,Gisborne District,吉斯伯恩大区|Gisborne|Gisborne District|Gisborne,NZ,-38.66667,178.01666,2190767,2643819
Q140246,Gisborne District,Gisborne District,吉斯伯恩大区|Gisborne|Gisborne District|Gisborne,NZ,-38.66667,178.01666,2190766,2643819
Q179538,Absheron District,Absheron District,阿布歇隆區|Abşeron|Abşeron|Abşeron,AZ,40.45718,49.738346,587245,3764533
Q179559,Arad County,Arad County,Arad|Arad|Kreis Arad|阿拉德縣,RO,46.36,21.8,686253,2248721
Q179567,Argeș County,Argeș County,阿爾傑什縣|Argeș|Argeș|Kreis Argeș,RO,45.0,24.82,686192,2261315
Q187712,Emirate of Abu Dhabi,Emirate of Abu Dhabi,阿布扎比|Abou Dabi|Abu Dabi|Abu Dhabi,AE,23.666666,54.0,292969,3766481
Q193295,Hradec Králové Region,Hradec Králové Region,Región de Hradec Králové|Královéhradecký kraj|Hradec Králové|赫拉德茨-克拉洛韋州,CZ,50.4,15.8,3339540,442463
Q193307,Olomouc Region,Olomouc Region,奥洛穆茨州|Región de Olomouc|Olomoucký kraj|Olomouc,CZ,49.716667,17.1,3339542,442459
Q193317,Pardubice Region,Pardubice Region,Pardubice|帕爾杜比采州|Región de Pardubice|Pardubický kraj,CZ,49.9,16.2,3339574,442460
Q193436,Lezhë County,Lezhë County,Qark Lezha|Lezhë|莱什州|Condado de Lezhë,AL,41.75,19.833334,3344949,1248935
Q193438,Shkodër County,Shkodër County,斯库台州|Shkodër|Condado de Shkodër|Qark Shkodra,AL,42.166668,19.75,3344950,1248293
Q106789,Värmland County,Värmland County,韦姆兰省|Värmland|Provincia de Värmland|Värmlands län,SE,59.75,13.25,2664870,54223
Q106915,Södermanland County,Södermanland County,Provincia de Sudermania|南曼兰省|Södermanlands län|Södermanland,SE,58.77105,16.869507,2676207,54386
Q107397,County Leitrim,County Leitrim,Leitrim|利特里姆郡|comté de Leitrim|Condado de Leitrim,IE,54.116665,-8.0,2962975,284368
Q140631,Tainan,Tainan,Tainan|Tainan|臺南市|Tainan,TW,22.983334,120.183334,1668355,2418506
Q140631,Tainan,Tainan,Tainan|Tainan|臺南市|Tainan,TW,22.983334,120.183334,1668352,2418506
Q140646,Kachin State,Kachin State,Estado Kachin|Kachin-Staat|Kachin|克钦邦,MM,26.0,97.5,1321702,5996476
Q141026,Algiers Province,Algiers Province,Provinz Algier|阿尔及尔省|wilaya d'Alger|Provincia de Argel,DZ,36.7,3.2166667,2507475,157062
Q179588,Bihor County,Bihor County,比霍爾縣|Bihor|Bihor|Kreis Bihor,RO,47.0722,21.9211,684878,91731
Q179779,Bacău County,Bacău County,巴克烏縣|Kreis Bacău|Bacău|Bacău,RO,46.42,26.78,685947,2248681
Q179830,Jelgava,Jelgava,叶尔加瓦|Jelgava|Jelgava|Jelgava,LV,56.65222,23.724445,459279,13048684
Q187753,Győr-Moson-Sopron County,Győr–Moson–Sopron County,Győr-Moson-Sopron|Győr-Moson-Sopron|Komitat Győr-Moson-Sopron|傑爾-莫雄-肖普朗州,HU,47.6,17.3,3051977,22249
Q187874,Plovdiv,Plovdiv Province,普羅夫迪夫州|Oblast Plowdiw|Plovdiv|Plovdiv,BG,42.166668,24.75,728194,1739536
Q187874,Plovdiv,Plovdiv Province,普羅夫迪夫州|Oblast Plowdiw|Plovdiv|Plovdiv,BG,42.266666,24.833334,728194,1739536
Q187925,Caraș-Severin County,Caraș-Severin County,卡拉什-塞維林縣|Caraș-Severin|distrito de Caraș-Severin|Kreis Caraș-Severin,RO,45.15,22.07,682714,2366873
Q188061,Vilnius County,Vilnius County,Vilnius|Provincia de Vilna|Bezirk Vilnius|維爾紐斯縣,LT,54.666668,25.283333,864485,977317
Q193454,Gjirokastër County,Gjirokastër County,Condado de Gjirokastër|Qark Gjirokastra|Gjirokastër|吉诺卡斯特州,AL,40.166668,20.166666,865733,1253915
Q193464,Korçë County,Korçë County,科尔察州|Condado de Korçë|Qark Korça|Korçë,AL,40.583332,20.666666,865734,1252589
Q193486,Dire Dawa,Dire Dawa,德雷达瓦|Dire Dawa|Dire Dawa|Dire Dawa,ET,9.583333,41.866665,444182,1707654
Q109361,North Hamgyong Province,North Hamgyong Province,咸镜北道|Hamgyong du Nord|Hamgyŏng del Norte|Hamgyŏng-pukto,KP,41.903,129.408,2044245,3781418
Q109368,South Hamgyong Province,South Hamgyong Province,Hamgyong du Sud|咸镜南道|Hamgyŏng del Sur|Hamgyŏng-namdo,KP,40.24,127.531,1877450,356386
Q147116,Unguja North Region,Unguja North Region,尚吉巴北区|Unguja Nord|Región de Zanzibar North|Zanzibar North,TZ,-5.9166665,39.333332,148725,1614022
Q147553,Zaqatala District,Zagatala District,扎卡塔雷區|Zaqatala (raión)|Zaqatala|Zaqatala,AZ,41.55,46.716667,584604,3764588
Q150325,Western Province,Western Province (Solomon Islands),Province occidentale|Provincia Occidental|Western|西部省,SB,-8.0,157.0,2101556,11916824
Q180200,Harju County,Harju County,Condado de Harju|Kreis Harju|Harju|哈爾尤縣,EE,59.333332,25.0,592170,350585
Q188096,Penang,Penang,槟城|Penang|Penang|Penang,MY,5.4025,100.365,1733047,4445131
Q194098,Khovd Province,Khovd Province,科布多省|Khovd|Hovd|Chowd-Aimag,MN,47.0,92.75,1515696,270055
Q109380,South Pyongan Province,South Pyongan Province,平安南道|Pyongan du Sud|P'yŏngan del Sur|P’yŏngan-namdo,KP,39.25,125.85,1871952,356419
Q109386,Nampo,Nampo,南浦特別市|Namp'o|Namp’o|Nampo,KP,38.733334,125.4,1873757,13263308
Q110171,Ryanggang Province,Ryanggang Province,两江道|Ryanggang|Ryanggang|Ryanggang-do,KP,41.4,128.18333,2039332,356379
Q110218,Mwanza,Mwanza,姆万扎|Mwanza|Mwanza|Mwanza,TZ,-2.5166667,32.9,152224,
Q151909,Bolama region,Bolama region,博拉馬區|Bolama-Bijagos|Región de Bolama|Bolama,GW,11.333333,-16.083334,2374689,1761581
Q152825,Naftalan,"Naftalan, Azerbaijan",納夫塔蘭|Naftalan|Naftalan|Naftalan,AZ,40.505833,46.819168,585400,
Q153009,Brunei-Muara District,Brunei–Muara District,汶莱-摩拉县|Brunei-Muara|Brunei y Muara|Brunei-Muara,BN,4.9,114.9,1820818,3853885
Q153326,Singida Region,Singida Region,Región de Singida|Singida|Singida|辛吉達區,TZ,-5.5,34.5,149876,1600775
Q180231,County Kilkenny,County Kilkenny,comté de Kilkenny|Condado de Kilkenny|County Kilkenny|基爾肯尼郡,IE,52.583332,-7.25,2963397,285980
Q180330,Farah Province,Farah Province,法拉省|Farâh|Farāh|Farah,AF,32.5,63.5,1142263,1674802
Q188147,Kunar Province,Kunar Province,库纳尔省|Kounar|Kunar|Kunar,AF,35.0,71.2,1135702,
Q188157,Parwan Province,Parwan Province,帕尔旺省|Parwân|Parwān|Parwan,AF,35.0,69.0,1131054,
Q188166,Adrar Province,Adrar Province,阿德拉爾省|Provincia de Adrar|Wilaya Adrar|Adrar,DZ,27.880556,-0.297222,2508807,1258650
Q194273,Nógrád County,Nógrád County,諾格拉德州|Nógrád|Nógrád|Komitat Nógrád,HU,48.0,19.57,3047348,22274
Q194483,Brčko District,Brčko District,布爾奇科特區|Distrito de Brčko|Distrikt Brčko|Brčko,BA,44.87361,18.806944,3294903,2528143
Q115256,Taoyuan,"Taoyuan, Taiwan",Taoyuan|Taoyuan|Taoyuan|桃園市,TW,24.991278,121.31433,1667900,2770986
Q115302,Holguín Province,Holguín Province,Holguín|奥尔金省|Provincia de Holguín|Provinz Holguín,CU,20.64,-74.9175,3556965,1854635
Q115310,Mayabeque Province,Mayabeque Province,瑪雅貝克省|Mayabeque|Provincia de Mayabeque|Provinz Mayabeque,CU,22.966667,-82.15,7668827,2579313
Q115318,Ruvuma Region,Ruvuma Region,魯伍馬區|Región de Ruvuma|Ruvuma|Ruvuma,TZ,-11.0,36.0,877416,1600825
Q115319,Guantánamo Province,Guantánamo Province,关塔那摩省|provincia de Guantánamo|Provinz Guantánamo|Guantánamo,CU,20.1333,-75.2,3557685,1854634
Q115325,Artemisa Province,Artemisa Province,Artemisa|阿特米薩省|Provincia de Artemisa|Provinz Artemisa,CU,22.816668,-82.76667,7668824,2576644
Q188612,Pest County,Pest County,Komitat Pest|Pest|Pest|佩斯州,HU,47.416668,19.333334,3046431,22259
Q188659,Utena County,Utena County,Provincia de Utena|Bezirk Utena|烏田納縣|Utena,LT,55.5,25.5,864484,966958
Q188661,Neamț County,Neamț County,尼亞姆茨縣|Neamț|Kreis Neamț|Neamț,RO,46.97,26.4,672460,2248675
Q199910,Magdalena Department,Magdalena Department,马格达莱纳省|Departamento del Magdalena|Magdalena|Magdalena,CO,10.183333,-74.23333,3675686,1319097
Q200124,Vayots Dzor Province,Vayots Dzor Province,瓦约茨佐尔州|Vayots Dzor|Vayots' Dzor|Wajoz Dsor,AM,39.75,45.5,409315,364081
Q200127,Tigray Region,Tigray Region,Tigré|Tigray|Tigray|提格雷州,ET,13.575,39.0875,444187,1707148
Q793727,Berovo Municipality,Berovo Municipality,贝罗沃市镇|Municipalidad de Berovo|Opština Berovo|Berovo,MK,41.7047,22.8533,863485,2583831
Q794039,Rahovec Municipality,Orahovac Municipality,奥拉霍瓦茨市镇|Gemeinde Rahovec,XK,42.4008,20.6569,787455,1332196
Q794068,Junik Municipality,Junik Municipality,尤尼克市镇|Gemeinde Junik,XK,42.483334,20.283333,8299770,1332191
Q794239,Azua Province,Azua Province,阿蘇阿省|Provincia de Azua|Azua|Azua,DO,18.46,-70.74,3512209,3421245
Q844502,Quetzaltenango Department,Quetzaltenango Department,克薩爾特南戈省|Departamento de Quetzaltenango|Departamento Quetzaltenango|Quetzaltenango,GT,14.845834,-91.51889,3590978,214710
Q844921,Maseru District,Maseru District,馬塞盧區|Maseru|Distrito de Maseru|Distrikt Maseru,LS,-29.5,28.0,932506,1252921
Q844929,Obock Region,Obock Region,Obock|奧博克州|Obock|Región de Obock,DJ,11.971667,43.29333,221525,
Q108037,Valmiera,Valmiera,Valmiera|Valmiera|Valmiera|瓦爾米耶拉,LV,57.538055,25.423056,453754,1277822
Q109342,North Hwanghae Province,North Hwanghae Province,黄海北道|Hwanghae du Nord|Hwanghae del Norte|Hwanghae-pukto,KP,38.50639,125.75972,1876888,356442
Q109348,North Pyongan Province,North Pyongan Province,Pyongan du Nord|P'yŏngan del Norte|P’yŏngan-pukto|平安北道,KP,40.1,124.4,1871954,356540
Q142258,Kampong Cham Province,Kampong Cham province,Provinz Kampong Cham|磅湛省|Provincia de Kompung Cham|Kampong Cham,KH,11.983334,105.45,1831172,2200442
Q145793,Zamfara State,Zamfara State,扎姆法拉州|Zamfara|Zamfara|Zamfara,NG,12.166667,6.25,2595349,3706956
Q146726,Zanjan Province,Zanjan province,Zandjan|Provincia de Zanjan|Zandschan|贊詹省,IR,36.6751,48.4845,111452,241473
Q147081,Zanzan Region,Zanzan Region,赞赞区|Region Zanzan|Zanzan|Zanzan,CI,8.616667,-3.15,2597325,
Q147081,Zanzan Region,Zanzan Region,赞赞区|Region Zanzan|Zanzan|Zanzan,CI,8.5,-3.25,2597325,
Q179833,Sumgait,Sumgait,Sumqayıt|苏姆盖特|Sumqayıt|Sumqayit,AZ,40.59611,49.67,584923,
Q179833,Sumgait,Sumgait,Sumqayıt|苏姆盖特|Sumqayıt|Sumqayit,AZ,40.59611,49.67,828305,
Q180068,Kohgiluyeh and Boyer-Ahmad Province,Kohgiluyeh and Boyer-Ahmad province,科吉盧耶-博韋艾哈邁德省|Kohguilouyeh-et-Bouyer-Ahmad|Kohkiluyeh y Buyer Ahmad|Kohgiluye und Boyer Ahmad,IR,30.833334,50.666668,126878,241478
Q180075,North Khorasan Province,North Khorasan province,Khorassan du Nord|Jorasán del Norte|Nord-Chorasan|北呼羅珊省,IR,37.4761,57.3317,6201376,225444
Q188068,Järva County,Järva County,耶爾瓦縣|Condado de Järva|Kreis Järva|Järva,EE,58.883335,25.55,591961,353776
Q188076,Võru County,Võru County,沃魯縣|Condado de Võru|Kreis Võru|Võru,EE,57.75,26.916666,587448,353812
Q188085,Panevėžys County,Panevėžys County,帕內韋日斯縣|Panevėžys|Provincia de Panevėžys|Bezirk Panevėžys,LT,56.0,25.0,864480,1028503
Q193494,Afar Region,Afar Region,Afar|región Afar|阿法尔州|Afar-Region,ET,11.816667,41.416668,444179,1707249
Q193551,Basra Governorate,Basra Governorate,巴士拉省|Al-Basra|Gobernación de Basora|Basra,IQ,30.366667,47.366665,89341,3244379
Q193790,Elbasan County,Elbasan County,爱尔巴桑州|Elbasan|condado de Elbasan|Qark Elbasan,AL,41.0,20.166666,865732,1250609
Q113120,Sliven,Sliven Province,斯利文州|Sliven|Sliven|Oblast Sliwen,BG,42.6853,26.324,864557,1739540
Q115027,Isla de la Juventud,Isla de la Juventud,青年岛|île de la Jeunesse|Isla de la Juventud|Isla de la Juventud,CU,21.75,-82.85,3555601,1854614
Q115027,Isla de la Juventud,Isla de la Juventud,青年岛|île de la Jeunesse|Isla de la Juventud|Isla de la Juventud,CU,21.75,-82.85,3555601,5219730
Q115046,Granma Province,Granma Province,provincia de Granma|格拉玛省|Provinz Granma|Granma,CU,20.3833,-76.6525,3558052,1854633
Q188283,Canton of Esch-sur-Alzette,Canton of Esch-sur-Alzette,阿尔泽特河畔埃施县|Canton d'Esch-sur-Alzette|Cantón de Esch-sur-Alzette|Kanton Esch an der Alzette,LU,49.5,6.0,2960599,1113898
Q188373,South Bohemian Region,South Bohemian Region,南捷克州|Bohême-du-Sud|Región de Bohemia Meridional|Jihočeský kraj,CZ,49.083332,14.666667,3339537,442321
Q188399,Central Bohemian Region,Central Bohemian Region,中捷克州|Bohême-Centrale|Bohemia Central|Středočeský kraj,CZ,49.966667,14.5,3339576,442397
Q188503,Brăila County,Brăila County,distrito de Brăila|布勒伊拉縣|Brăila|Kreis Brăila,RO,45.11,27.68,683901,2355512
Q188505,Constanța County,Constanța County,Constanța|distrito de Constanța|康斯坦察縣|Kreis Constanța,RO,44.27,28.31,680962,2367022
Q196674,Zaire Province,Zaire Province,province de Zaïre|Provincia de Zaire|Provinz Zaire|薩伊省,AO,-6.266667,14.233334,2236355,422608
Q197564,Zhemgang District,Zhemgang District,谢姆冈宗|Distrito de Zhemgang|Zhemgang|Zhemgang,BT,27.0,90.75,1337291,3899622
Q199580,Central Greece Region,Central Greece (administrative region),Mittelgriechenland|periferia de Grecia Central|中希臘大區|Grèce-Centrale,GR,38.583332,22.666666,6697800,910915
Q199880,Ararat Province,Ararat Province,亚拉腊州|Region Ararat|Ararat|Ararat,AM,39.916668,44.716667,409313,364083
Q199905,Gegharkunik Province,Gegharkunik Province,Geghark'unik'|Gegharkunik|Gegharkunik|格加尔库尼克州,AM,40.416668,45.2,828261,364080
Q780884,Cuvette Department,Cuvette Department,盆地省|Cuvette|Departamento de Cuvette|Cuvette,CG,-0.48333332,15.8975,2260487,3220588
Q785367,Lembá,Lembá District,倫巴縣|district de Lembá|Distrito de Lembá|Lembá,ST,0.28111112,6.4994445,8299560,4779079
Q785896,Kratié Province,Kratié province,桔井省|Provincia de Kratié|Kratie|Kratie,KH,12.483334,106.01667,1830563,2200456
Q786957,Point Fortin,Point Fortin,Point Fortin|Punta Fortín|波因特福廷|Point Fortin,TT,10.166667,-61.666668,3573899,7363418
Q791667,Awdal Region,Awdal,奥达勒州|Awdal|Awdal|Awdal,SO,10.800833,43.351944,6268943,
Q792550,Ad Dakhiliyah Governorate,Ad Dakhiliyah Governorate,內地省|Ad-Dākhilīyah|Gobernación de Ad Dajilía|Ad-Dachiliyya,OM,22.0,57.0,411735,3781241
Q115334,Las Tunas Province,Las Tunas Province,Provincia de Las Tunas|Provinz Las Tunas|Las Tunas|拉斯图纳斯省,CU,20.9597,-76.9544,3550595,1854636
Q115434,Villa Clara Province,Villa Clara Province,比亚克拉拉省|Provincia de Villa Clara|Provinz Villa Clara|Villa Clara,CU,22.4053,-79.9542,3534168,1923804
Q115438,Matanzas Province,Matanzas Province,马坦萨斯省|provincia de Matanzas|Provinz Matanzas|Matanzas,CU,23.0511,-81.5753,3547394,1854616
Q115441,Sancti Spíritus Province,Sancti Spíritus Province,Provincia de Sancti Spíritus|Provinz Sancti Spíritus|Sancti Spíritus|圣斯皮里图斯省,CU,21.9339,-79.4439,3540665,1923793
Q200130,Azad Kashmir,Azad Kashmir,Azad Cachemire|Azad Cachemira|Asad Jammu und Kaschmir|自由克什米爾,PK,33.938084,73.76456,1184196,3780130
Q200350,Lori Province,Lori Province,Lorri|Lorri|Lori|洛里州,AM,40.916668,44.5,828263,
Q200667,Ladakh,Ladakh,Ladakh|拉達克|Ladakh|Ladakh,IN,34.166668,77.583336,1265343,5515045
Q795441,Jalapa Department,Jalapa Department,哈拉帕省|Departamento de Jalapa|Departamento Jalapa|Jalapa,GT,14.633889,-89.98111,3595236,214706
Q795587,Escuintla Department,Escuintla Department,Departamento de Escuintla|Departamento Escuintla|Escuintla|埃斯昆特拉省,GT,14.297778,-90.78694,3595802,214714
Q795591,El Progreso Department,El Progreso Department,普羅格雷索省|El Progreso|Departamento de El Progreso|Departamento El Progreso,GT,14.8538885,-90.06861,3596416,214697
Q795647,Carriacou Island,Carriacou,卡里亞固島|île de Carriacou|Carriacou|Carriacou,GD,12.466667,-61.45,3580384,
Q845168,East,East Region (Cameroon),Región del Este|东部区|Est|Est,CM,4.575,13.681389,2231835,2750738
Q845172,Littoral,Littoral Region (Cameroon),濱海區|Región del Litoral|Littoral|Littoral,CM,4.045833,9.698611,2229336,2750851
Q845303,Hauts-Bassins Region,Hauts-Bassins Region,上盆地大區|Hauts-Bassins|Región Hauts-Bassins|Hauts-Bassins,BF,11.25,-4.5,6930710,2674447
Q845540,San Salvador Island,San Salvador Island,San Salvador|San Salvador|圣萨尔瓦多岛|San Salvador,BS,24.03667,-74.49306,3571492,3776666
Q845540,San Salvador Island,San Salvador Island,San Salvador|San Salvador|圣萨尔瓦多岛|San Salvador,BS,24.03667,-74.49306,3571493,3776666
Q845600,Canton of Vianden,Canton of Vianden,菲安登县|Canton de Vianden|Cantón de Vianden|Kanton Vianden,LU,49.933334,6.1666665,2960020,1342842
Q845702,Ohangwena Region,Ohangwena Region,奧漢圭納區|Ohangwena|Ohangwena|Ohangwena,NA,-17.6,16.8,3371203,2279597
Q845706,Lacs Region,Lacs Region,湖泊区|Lacs|Lacs|Lacs,CI,6.8333335,-5.1666665,2597324,
Q845709,Haut-Sassandra,Haut-Sassandra,上萨桑德拉区|Haut-Sassandra|Haut-Sassandra|Haut-Sassandra,CI,7.0,-6.5,2597319,1609810
Q862606,Plateau-Central Region,Plateau-Central Region,高原-中部大區|Plateau-Central|Región Plateau-Central|Plateau Central,BF,12.416667,-1.0,6930712,2746035
Q862608,Montserrado County,Montserrado County,蒙特塞拉多县|Montserrado|Condado de Montserrado|Montserrado County,LR,6.5,-10.5,2274890,3320955
Q862611,Boké Region,Boké Region,博凱大區|Boké|Region Boké|Boké,GN,11.25,-14.25,8335085,3309644
Q202071,Falcón,Falcón,法尔孔州|Falcón|Falcón|Falcón,VE,11.406667,-69.67778,3640873,2269792
Q202075,Guárico,Guárico,瓜里科州|Guárico|Guárico|Guárico,VE,8.7,-66.6,3640017,272663
Q818742,Mon State,Mon State,孟邦|Môn|Estado Mon|Mon-Staat,MM,16.166666,97.666664,1308528,5996481
Q818765,Shinyanga,Shinyanga,欣延加|Shinyanga|Shinyanga|Shinyanga,TZ,-3.6723566,33.42968,150006,
Q848554,Tambacounda Region,Tambacounda region,坦巴昆達區|Region Tambacounda|Tambacounda|Tambacounda,SN,13.3,-12.816667,2244990,3405109
Q848560,Ouaka Prefecture,Ouaka,瓦卡省|Ouaka|Ouaka|Ouaka,CF,6.0,21.0,236887,2954786
Q848567,Mambéré-Kadéï,Mambéré-Kadéï,曼貝雷-卡代省|Mambéré-Kadéï|Mambéré-Kadéï|Mambéré-Kadéï,CF,4.5,16.0,2386161,2954783
Q867089,Olancho Department,Olancho Department,Olancho|Departamento de Olancho|Departamento Olancho|奧蘭喬省,HN,14.667172,-86.21958,3604249,4627317
Q867097,Valle Department,Valle Department,山谷省|Departamento de Valle|Departamento Valle|Valle,HN,13.532519,-87.488144,3600456,4627318
Q1466462,Hiiu County,Hiiu County,希烏縣|Condado de Hiiu|Kreis Hiiu|Hiiu,EE,58.833332,22.666666,592133,350340
Q1466671,Mahaica-Berbice,Mahaica-Berbice,馬海卡-伯比斯區|Mahaica-Berbice|Mahaica-Berbice|Mahaica-Berbice,GY,6.229522,-57.886845,3377274,7108958
Q115444,Cienfuegos Province,Cienfuegos Province,西恩富戈斯省|Provincia de Cienfuegos|Provinz Cienfuegos|Cienfuegos,CU,22.1456,-80.4364,3564120,1854632
Q200697,Gilgit-Baltistan,Gilgit-Baltistan,Gilgit-Baltistan|Gilgit-Baltistán|Gilgit-Baltistan|吉尔吉特-巴尔蒂斯坦,PK,35.35,75.9,1168878,357995
Q201063,Shirak Province,Shirak Province,希拉克州|Shirak|Shirak|Schirak,AM,40.833332,43.916668,828264,364077
Q799791,Bafatá,Bafatá region,巴法塔區|Región de Bafatá|Region Bafatá|Bafatá,GW,12.166667,-14.75,2375255,1761578
Q799800,Bafing Region,Bafing Region,巴芬区|Region Bafing|Bafing|Bafing,CI,8.5,-7.5,2597334,1609815
Q800124,Bago Region,Bago Region,勃固省|Bago|Bago|Bago-Region,MM,17.333889,96.48639,1300463,5996474
Q803716,Baie Sainte Anne,Baie Saint Anne,Baie Sainte Anne|Baie Sainte Anne|Baie Sainte Anne|貝聖安那區,SC,-4.31667,55.7333,241438,
Q804311,Blagoevgrad,Blagoevgrad Province,Blagoevgrad|Blagoevgrad|布拉戈耶夫格勒州|Oblast Blagoewgrad,BG,41.75,23.25,733192,1739521
Q806070,Banaadir,Banaadir,Banaadir|Benadir|Banaadir|巴納迪爾州,SO,2.0497222,45.262222,64833,
Q806550,Bangsamoro,Bangsamoro,邦薩摩洛|Bangsamoro|Bangsamoro|Bangsamoro,PH,7.2166667,124.25,,3821409
Q807079,Baoruco Province,Baoruco Province,巴奧魯可省|Baoruco|Bahoruco|Baoruco,DO,18.49,-71.42,3512050,3420663
Q845713,Sud-Bandama,Sud-Bandama,Sud-Bandama|Sud-Bandama|Sud-Bandama|南邦达马区,CI,5.6666665,-5.5,2597329,
Q845721,Vallée du Bandama Region,Vallée du Bandama Region,邦达马河谷区|Vallée du Bandama|Vallée du Bandama|Region Vallée du Bandama,CI,8.25,-4.8333335,2597321,
Q845807,Northern Province,"Northern Province, Rwanda",Provincia Norte|Nordprovinz|北部省|Nord,RW,-1.5680555,29.910278,6413339,1708298
Q846017,Nyanga Province,Nyanga Province,尼揚加省|Provincia de Nyanga|Nyanga|Nyanga,GA,-3.0,11.0,2397141,1243587
Q846056,Worodougou,Worodougou,沃罗杜古区|Worodougou|Worodougou|Worodougou,CI,8.5,-6.3333335,2597327,1609807
Q846158,West Coast Division,West Coast Division (The Gambia),West Coast|División Western|West Coast Region|西部區,GM,13.25,-16.316668,2411683,7224888
Q862617,Quinara Region,Quinara region,基納拉區|Quinara|Región de Quinara|Region Quinara,GW,11.666667,-15.166667,2370360,1761585
Q862753,Lékoumou Department,Lékoumou Department,萊庫穆省|Lékoumou|Lékoumou|Lékoumou,CG,-0.8666667,14.8167,2258534,
Q863476,Bimini,Bimini,îles Bimini|比米尼群島|Bimini|Bimini,BS,25.733334,-79.25,3572807,3776645
Q863554,Likouala Department,Likouala Department,利夸拉省|Likouala|Likouala|Likouala,CG,1.6333333,18.066668,2258431,3220591
Q864093,North Kordofan,North Kordofan,北科尔多凡州|Kordofan du Nord|Kordofán del Norte|Schamal Kurdufan,SD,14.366667,29.533333,408667,3774669
Q864647,Pool Department,Pool Department,普爾省|Departamento de Pool|Pool|Pool,CG,-3.7297223,15.053889,2255404,3220595
Q1424401,Independencia,Independencia Province,Independencia|Independencia|Independencia|獨立省,DO,18.49,-71.85,3504326,3420665
Q1431099,Saint Luke Parish,"Saint Luke Parish, Dominica",聖盧克區|Saint-Luke|Parroquia de Saint Luke|Saint Luke,DM,15.25,-61.383335,3575622,2306401
Q1431108,Saint Patrick Parish,"Saint Patrick Parish, Dominica",聖帕特里克堂區|Parroquia de Saint Patrick|Saint Patrick|Saint-Patrick,DM,15.416667,-61.333332,3575620,2304770
Q1457965,Raa Atoll,Raa Atoll,拉環礁|Raa|Atolón Raa|Raa,MV,5.633333,72.916664,1281918,6599331
Q1463152,Centar Municipality,"Centar Municipality, Skopje",岑塔尔市镇|Municipalidad de Centar (Skopje)|Opština Centar|Centar,MK,42.002285,21.421211,863840,2439777
Q1463246,Karpoš Municipality,Karpoš Municipality,卡尔波什市镇|Karpoš|Municipalidad de Karpoš|Opština Karpoš,MK,42.0,21.47,863860,2440380
Q201074,Municipality of Turnišče,Municipality of Turnišče,Turnišče|Turnišče|图尔尼什切市镇,SI,46.627777,16.320278,3239283,1676365
Q201121,Yaracuy,Yaracuy,亚拉奎州|Yaracuy|Yaracuy|Yaracuy,VE,10.3,-68.7,3625210,272743
Q201137,Delta Amacuro,Delta Amacuro,Delta Amacuro|Delta Amacuro|阿马库罗三角洲州|Delta Amacuro,VE,8.7,-61.15,3644541,272669
Q201140,Tavush Province,Tavush Province,塔武什州|Tawusch|Tavush|Tavush,AM,40.883335,45.133335,828265,364079
Q809733,Bas-Sassandra Region,Bas-Sassandra Region,下萨桑德拉区|Bas-Sassandra|Bas-Sassandra|Region Bas-Sassandra,CI,5.5,-6.6666665,2597326,
Q810484,Basse-Kotto Prefecture,Basse-Kotto,Basse-Kotto|Basse-Kotto|Basse-Kotto|下科托省,CF,5.0,21.5,240396,2634533
Q810923,Battambang Province,Battambang province,馬德望省|Battambang|Provincia de Battambang|Battambang,KH,13.028611,102.98944,1821310,6608542
Q811132,Baucau Municipality,Baucau Municipality,包考縣|Baucau (municipalité|Baucau (distrito)|Baucau,TL,-8.583333,126.5,1649538,4631019
Q812064,Bay,"Bay, Somalia",拜州|Bay|Bay|Bay,SO,3.0744445,43.835278,64538,
Q815077,Bel Air,"Bel Air, Seychelles",貝爾艾爾區|Bel Air|Bel Air|Bel Air,SC,-4.633333,55.45,241426,
Q846161,North Bank Division,North Bank Division,北岸區|North Bank|División North Bank|North Bank Region,GM,13.486111,-15.93,2412353,7224886
Q846320,Northwestern Province,"North-Western Province, Zambia",Province Nord-Occidentale|Provincia del Noroeste|Nordwestprovinz|西北省,ZM,-13.0,25.0,900594,318859
Q846323,Central Region,Central Region (Ghana),Région du Centre|Región Central|Central Region|中部地區,GH,5.5,-1.0,2302353,3330281
Q846331,West Darfur,West Darfur,Darfour-Occidental|Gharb Darfur|Darfur del Oeste|西达尔富尔州,SD,12.897222,23.18111,408658,3774664
Q847014,Funen County,Funen County,菲英郡|Fyns Amt|Fionie|Fionia,DK,55.38111,10.435278,,
Q864971,Southland Region,Southland Region,南地大区|Southland|Southland|Southland,NZ,-45.7,168.1,2182501,1640159
Q865534,Sennar,Sennar State,Sannar|Sennar|Sannar|森纳尔州,SD,12.94028,34.18944,408669,3774667
Q865649,Pļaviņas Municipality,Pļaviņas Municipality,普利亞維尼亞斯市鎮|Pļaviņas|Municipalidad de Pļaviņas|Bezirk Pļaviņas,LV,56.6,25.716667,7628356,1811631
Q865658,Aknīste Municipality,Aknīste Municipality,Commune d'Aknīste|Municipalidad de Aknīste|Bezirk Aknīste|阿克尼斯泰市鎮,LV,56.160557,25.798056,7628338,1806924
Q865682,Koknese Municipality,Koknese Municipality,科克內塞市鎮|Municipalidad de Koknese|Bezirk Koknese|Koknese,LV,56.65,25.433332,7628357,1811626
Q1400625,Jiwaka Province,Jiwaka Province,吉瓦卡省|Jiwaka Province|Jiwaka|Jiwaka Province,PG,-6.0,144.58333,8521660,
Q1419190,South Constituency,South (Althing constituency),南部选区|Suðurkjördæmi|Suðurkjördæmi|Suðurkjördæmi,IS,64.0167,-22.5667,,
Q1419314,Čair Municipality,Čair Municipality,Čair|Municipalidad de Čair|Opština Čair|查伊尔市镇,MK,42.001945,21.438055,833262,
Q1422453,Kriva Palanka Municipality,Kriva Palanka Municipality,克里瓦帕兰卡市镇|Kriva Palanka|Municipalidad de Kriva Palanka|Opština Kriva Palanka,MK,42.22,22.33,863869,2587615
Q1424391,San José de Ocoa Province,San José de Ocoa Province,San José de Ocoa|San José de Ocoa|San José de Ocoa|圣何塞德奥科阿省,DO,18.55,-70.5,6201372,3421243
Q1444575,Chaguanas,Chaguanas,查瓜納斯|Chaguanas|Chaguanas|Chaguanas,TT,10.514444,-61.4075,7521937,7363641
Q1454035,Potaro-Siparuni,Potaro-Siparuni,波塔羅-錫帕魯尼區|Potaro-Siparuni|Potaro-Siparuni|Potaro-Siparuni,GY,4.769703,-59.265392,3376386,7108941
Q201147,Armavir Province,Armavir Province,阿尔马维尔州|Armavir|Armawir|Armavir,AM,40.15,44.05,828260,364086
Q201647,Aghdam District,Aghdam District,Agdam|Ağdam|Ağdam|阿格達姆區,AZ,39.983612,46.92861,148617,3795445
Q202068,Trujillo,Trujillo (state),特鲁希略州|Bundesstaat Trujillo|Trujillo|Trujillo,VE,9.416667,-70.5,3625974,272634
Q815330,Turkistan Region,Turkistan Region,Türkistan|Turkestan|provincia de Turkestán|图尔克斯坦州,KZ,43.0,68.5,1524787,215739
Q815913,Lagos State,Lagos State,拉各斯州|Estado de Lagos|Lagos|Lagos,NG,6.5833335,3.75,2332453,3718182
Q815913,Lagos State,Lagos State,拉各斯州|Estado de Lagos|Lagos|Lagos,NG,6.5833335,3.75,2332459,3718182
Q817327,Thaba-Tseka District,Thaba-Tseka District,Thaba-Tseka|Distrito de Thaba-Tseka|Thaba-Tseka|塔巴-采卡區,LS,-29.5,28.666666,932011,1252927
Q817340,Mokhotlong District,Mokhotlong District,莫霍特隆區|Distrito de Mokhotlong|Mokhotlong|Mokhotlong,LS,-29.333334,29.0,932418,1252920
Q817342,Mafeteng District,Mafeteng District,馬費滕區|Distrito de Mafeteng|Mafeteng|Mafeteng,LS,-29.833334,27.916666,932615,1252924
Q847289,Sagaing Region,Sagaing Region,實皆省|Región de Sagaing|Sagaing-Region|Sagaing,MM,21.5,95.61667,1298480,5996484
Q847527,Mongala,Mongala,蒙加拉省|Mongala|Mongala|Mongala,CD,2.15,21.516666,208741,11248071
Q847671,Kaolack,Kaolack region,Kaolack|Kaolack|考拉克区|Region Kaolack,SN,14.0,-16.0,2250804,3405263
Q847682,Thiès Region,Thiès region,捷斯區|Region Thiès|Thiès|Thiès,SN,14.766666,-16.9,2244800,2906477
Q847718,Mwaro Province,Mwaro Province,穆瓦洛省|Provincia de Mwaro|Mwaro|Mwaro,BI,-3.5119445,29.699167,434386,1700318
Q865717,Brocēni Municipality,Brocēni Municipality,Municipalidad de Brocēni|Bezirk Brocēni|Brocēni|布羅采尼市鎮,LV,56.733334,22.65,7628309,
Q866699,Sonsorol,Sonsorol,松索羅爾|Sonsorol|Sonsoral|Sonsorol,PW,5.3261113,132.22055,1559630,3825300
Q866739,Ringkjøbing County,Ringkjøbing County,靈克賓郡|Ringkjøbing|Ringkjøbing|Ringkjøbing Amt,DK,56.083332,8.25,,
Q866838,Frederiksborg County,Frederiksborg County,腓特烈堡郡|Frederiksborg|Frederiksborg Amt|Frederiksborg,DK,55.933334,12.316667,,
Q866849,North Jutland County,North Jutland County,北日德蘭郡|Nordjyllands Amt|Jutland du Nord|Jutlandia Septentrional,DK,57.04778,9.918612,,
Q866856,Ribe County,Ribe County,里伯郡|Ribe Amt|Ribe|Ribe,DK,55.5805,8.6512,,
Q866886,La Paz Department,La Paz Department (Honduras),La Paz|La Paz|Departamento de La Paz|拉巴斯省 (洪都拉斯),HN,14.323359,-87.683205,3607251,4627392
Q867084,Ocotepeque Department,Ocotepeque Department,奥科特佩克省|Departamento de Ocotepeque|Departamento Ocotepeque|Ocotepeque,HN,14.435483,-89.18449,3604318,4627394
Q1431115,Saint Mark Parish,"Saint Mark Parish, Dominica",Saint Mark|聖馬克堂區|Saint-Mark|Parroquia de Saint Mark,DM,15.232223,-61.359722,3575621,2306400
Q1431129,Saint David Parish,"Saint David Parish, Dominica",聖戴維堂區|Saint-David|Parroquia de Saint David|Saint David,DM,15.366667,-61.266666,3575630,2314472
Q1444575,Chaguanas,Chaguanas,查瓜納斯|Chaguanas|Chaguanas|Chaguanas,TT,10.514444,-61.4075,3574809,7363641
Q202107,Oromia Region,Oromia,奧羅米亞州|Región de Oromía|Oromia|Oromia,ET,7.989061,39.38118,444185,1707656
Q202484,Peloponnese Region,Peloponnese (region),periferia del Peloponeso|伯罗奔尼撒大区|Péloponnèse|Peloponnes,GR,37.333332,22.416666,6697807,957717
Q202747,Buada District,Buada District,布阿达区|Buada|Buada|Buada,NR,-0.533333,166.91667,2110440,8437555
Q202800,Somali Region,Somali Region,región Somalí|索馬里州|Somali|Somali,ET,7.4387307,44.296875,444186,1707658
Q202904,Sofia,Sofia Province,索菲亞州|Oblast Sofia|Sofía|Sofia,BG,42.666668,23.666666,727012,1739542
Q818774,Fromager,Fromager,弗罗马格尔区|Gôh|Fromager|Fromager,CI,6.25,-5.9166665,2597330,
Q819987,Leribe District,Leribe District,Leribe|Leribe|萊里貝區|Distrito de Leribe,LS,-29.0,28.0,932700,1252929
Q819998,Lusaka Province,Lusaka Province,卢萨卡省|Provincia de Lusaka|Lusaka|Lusaka,ZM,-15.416667,29.0,909129,318864
Q820486,Dix-Huit Montagnes,Dix-Huit Montagnes,十八山区|Dix-Huit Montagnes|Dix-Huit Montagnes|Dix-Huit Montagnes,CI,7.3333335,-7.6666665,2597323,
Q820940,Siyazan District,Siyazan District,錫阿贊區|Siyəzən|Siyəzən|Siyəzən,AZ,40.983334,49.183334,828304,3764578
Q821008,Ali Sabieh Region,Ali Sabieh Region,阿里薩比州|Región de Ali Sabieh|Ali Sabieh|Ali Sabieh,DJ,11.142778,42.71639,225282,3725240
Q848572,Kémo Prefecture,Kémo,凱莫省|Kémo|Kémo|Kémo,CF,5.75,19.083334,2385836,2954782
Q848578,Haut-Mbomou Prefecture,Haut-Mbomou,上姆博穆省|Haut-Mbomou|Haut-Mbomou|Haut-Mbomou,CF,6.0,26.0,238639,2634528
Q848585,Vakaga Prefecture,Vakaga,瓦卡加省|Vakaga|Vakaga|Vakaga,CF,10.333333,22.75,236178,2634498
Q848591,Ouham-Pendé Prefecture,Ouham-Pendé,瓦姆-彭代省|Ouham-Pendé|Ouham-Pendé|Ouham-Pendé,CF,7.0,16.0,2383650,2954276
Q848596,Haute-Kotto Prefecture,Haute-Kotto,上科托省|Haute-Kotto|Haute-Kotto|Haute-Kotto,CF,7.0,23.0,238640,2634510
Q848613,Islamabad Capital Territory,Islamabad Capital Territory,伊斯兰堡首都区|Territoire fédéral d'Islamabad|Hauptstadtterritorium Islamabad,PK,33.7375,73.1475,1162015,358002
Q849297,River Nile,River Nile State,尼罗州|Nahr an-Nil|Río Nilo|Nil,SD,18.37528,33.67306,408664,3774666
Q849320,Municipality of Brezovica,Municipality of Brezovica,Brezovica|Gemeinde Brezovica|布雷佐维察市镇|Municipalidad del Brezovica,SI,46.020832,14.417778,3239071,1675853
Q849320,Municipality of Brezovica,Municipality of Brezovica,Brezovica|Gemeinde Brezovica|布雷佐维察市镇|Municipalidad del Brezovica,SI,45.94889,14.42444,3239071,1675853
Q867108,El Paraíso Department,El Paraíso Department,Departamento de El Paraíso|Departamento El Paraíso|El Paraíso|埃爾帕拉伊索省,HN,13.944389,-86.85265,3610942,4627316
Q867112,Gracias a Dios Department,Gracias a Dios Department,格拉西亚斯-阿迪奥斯省|Gracias a Dios|Departamento de Gracias a Dios|Gracias a Dios,HN,15.266408,-83.77253,3609583,3811537
Q867117,Colón Department,Colón Department (Honduras),Departamento de Colón|科隆省|Colón|Colón,HN,15.917936,-85.95296,3613358,4627315
Q867126,Francisco Morazán Department,Francisco Morazán Department,Francisco Morazán|Departamento de Francisco Morazán|Departamento Francisco Morazán|弗朗西斯科·莫拉桑省,HN,14.105714,-87.20401,3609672,4627390
Q867219,Kalangala District,Kalangala District,卡蘭加拉區|Distrito de Kalangala|Distrikt Kalangala|Kalangala,UG,-0.5833333,32.433334,443338,3501887
Q1472841,Soufrière Quarter,Soufrière District,Distrito de Soufrière|Soufrière|district de Soufrière|蘇弗里耶爾區,LC,13.85,-61.05,3576441,9303838
Q1472841,Soufrière Quarter,Soufrière District,Distrito de Soufrière|Soufrière|district de Soufrière|蘇弗里耶爾區,LC,13.85,-61.033333,3576441,9303838
Q1472864,Vieux Fort Quarter,Vieux Fort District,district de Vieux-Fort|伯堡區|Distrito de Vieux Fort|Vieux Fort,LC,13.75,-60.958332,3576413,9303796
Q1473654,Saint Anne Sandy Point Parish,Saint Anne Sandy Point Parish,聖安娜沙角區|Saint-Anne Sandy Point|Parroquia de Saint Anne Sandy Point|Saint Anne Sandy Point,KN,17.375278,-62.84139,3575183,9280612
Q1475001,Rankovce Municipality,Rankovce Municipality,兰科夫采市镇|Rankovce|Municipalidad de Rankovce|Opština Rankovce,MK,42.183334,22.1,863891,2587610
Q203009,Amhara Region,Amhara Region,阿姆哈拉州|Región de Amhara|Amhara|Amhara,ET,11.6608,37.9578,444180,1707264
Q203193,"Southern Nations, Nationalities, and Peoples' Region","Southern Nations, Nationalities, and Peoples' Region","Région des nations, nationalités et peuples du Sud|Región de las Naciones, Nacionalidades y Pueblos del Sur|Region der südlichen Nationen, Nationalitäten und Völker|南方各族州",ET,6.5,37.1,444188,1707657
Q203272,Saare County,Saare County,薩雷縣|Saare|Condado de Saare|Kreis Saare,EE,58.416668,22.583334,588879,350144
Q204367,Zinder Region,Zinder Region,津德尔大区|Zinder|Región de Zinder|Zinder,NE,13.7,9.2,2437797,3218807
Q821037,Lobaye Prefecture,Lobaye,Lobaye|Lobaye|Lobaye|洛巴耶省,CF,4.0,18.0,2385105,3564719
Q822514,Torba,Torba Province,托尔巴省|Torba|Torba|Torba,VU,-13.75,167.5,2137421,3765596
Q822566,Rutana Province,Rutana Province,魯塔納省|Provincia de Rutana|Rutana|Rutana,BI,-3.8777778,30.16,434147,1695020
Q822571,Muyinga Province,Muyinga Province,穆因加省|Muyinga|Provincia de Muyinga|Muyinga,BI,-2.823611,30.32361,431747,1700330
Q822578,Ruyigi Province,Ruyigi Province,鲁伊吉省|Provincia de Ruyigi|Ruyigi|Ruyigi,BI,-3.5297222,30.291945,426699,1695105
Q849727,Copenhagen County,Copenhagen County,Københavns Amt|Copenhague|Copenhague|哥本哈根郡,DK,55.666668,12.4,,
Q849790,Western Province,Western Province (Papua New Guinea),Western Province|Province de l'Ouest|Provincia Occidental|西部省,PG,-7.3333335,142.0,2083549,
Q849801,Southern Highlands Province,Southern Highlands Province,南高地省|Hautes-Terres méridionales|Tierras Altas del Sur|Southern Highlands Province,PG,-6.1666665,143.33333,2086331,
Q849807,Western Highlands Province,Western Highlands Province,西高地省|Hautes-Terres occidentales|Tierras Altas Occidentales|Western Highlands Province,PG,-5.6666665,144.5,2083551,
Q849812,Eastern Highlands Province,Eastern Highlands Province,Hautes-Terres orientales|Tierras Altas Orientales|Eastern Highlands Province|東高地省,PG,-6.5,145.66667,2097855,
Q849841,Kanem Region,Kanem (region),加奈姆區|Kanem|Región de Kanem|Kanem,TD,14.1194,15.3133,2430873,3106623
Q867573,Freeport,"Freeport, The Bahamas",弗里波特|Freeport|Freeport|Freeport,BS,26.52,-78.66,3572374,3776653
Q867856,Tandjilé Region,Tandjilé (region),坦吉萊區|Tandjilé|Región de Tandjilé|Tandjilé,TD,9.4,16.3,2425287,3218254
Q867869,Lac Region,Lac (province),Región de Lac|Lac|Lac|湖區,TD,13.46,14.74,2429323,3217119
Q868497,Nimba,Nimba County,Nimba County|Nimba|Nimba|寧巴縣,LR,6.75,-8.75,2274688,3320773
Q868515,Labé Region,Labé Region,拉貝大區|Labé|Region Labé|Labé,GN,11.75,-12.0,8335089,3308839
Q868520,Kindia Region,Kindia Region,金迪亞大區|Région de Kindia|Region Kindia|Kindia,GN,10.25,-13.0,8335088,3309805
Q1468407,Kaafu Atoll,Kaafu Atoll,Kaafu|Atolón Kaafu|Kaafu|卡富環礁,MV,4.4166665,73.5,1282208,6599423
Q1468596,Ad Dhahirah Governorate,Al Dhahirah Governorate,扎希拉省|Ad Dhahirah|Ad Dhahirah|Az-Zahirah,OM,23.23639,56.504444,411739,3781242
Q1472520,Saint George Gingerland Parish,Saint George Gingerland Parish,圣乔治金杰兰区|Saint-George Gingerland|Parroquia de Saint George Gingerland|Saint George Gingerland,KN,17.133333,-62.55,3575179,9280621
Q1476309,Saint Patrick Parish,"Saint Patrick Parish, Grenada",聖帕特里克區 (格林納達)|Paroisse de Saint Patrick|Parroquia de Saint Patrick|Saint Patrick,GD,12.203056,-61.640556,3579907,12342346
Q1515842,Mirna Municipality,Municipality of Mirna,米尔纳市镇|Gemeinde Mirna|Mirna,SI,45.95028,15.060833,11288255,1681521
Q1516381,Upper Takutu-Upper Essequibo,Upper Takutu-Upper Essequibo,上塔库图-上埃塞奎博|Haut-Takutu-Haut-Essequibo|Alto Tacutu-Alto Esequibo|Upper Takutu-Upper Essequibo,GY,2.9009972,-58.93517,3375463,7108944
Q1543219,San Salvador Department,San Salvador Department,聖薩爾瓦多省|Departamento San Salvador|Departamento de San Salvador|San Salvador,SV,13.698964,-89.19143,3583360,3624436
Q1544417,Greater Banjul Area,Greater Banjul Area,Greater Banjul Area,GM,13.44375,-16.6614,,7224887
Q1552897,Porto Novo,"Porto Novo, Cape Verde (municipality)",波多諾伏縣|Porto Novo|Porto Novo|Porto Novo,CV,17.019506,-25.06463,7602868,4019980
Q204642,Ntungamo District,Ntungamo District,恩通加莫区|Distrito de Ntungamo|Distrikt Ntungamo|Ntungamo,UG,-0.9166667,30.266666,443361,3501899
Q204876,Nueva Esparta,Nueva Esparta,新埃斯帕塔州|Nueva Esparta|Nueva Esparta|Nueva Esparta,VE,11.0,-64.0,3631462,2269770
Q205460,Cojedes,Cojedes (state),科赫德斯州|Cojedes|Cojedes|Cojedes,VE,9.35,-68.316666,3645386,272662
Q205776,Monagas,Monagas,莫納加斯州|Monagas|Monagas|Monagas,VE,9.416667,-63.066666,3632100,272670
Q822692,Ziguinchor,Ziguinchor region,región de Ziguinchor|济金绍尔区|Region Ziguinchor|Ziguinchor,SN,12.783334,-16.216667,2243939,2909649
Q823443,Comayagua Department,Comayagua Department,科馬亞瓜省|Departamento de Comayagua|Departamento Comayagua|Comayagua,HN,14.452766,-87.637924,3613319,12113927
Q823740,Makamba Province,Makamba Province,馬坎巴省|Provincia de Makamba|Makamba|Makamba,BI,-4.264167,29.816668,422233,1695019
Q823751,Ogooué-Maritime Province,Ogooué-Maritime Province,濱海奧果韋省|Ogooué-Maritime|Ogooué-Maritime|Ogooué-Maritime,GA,-1.5,9.5,2396924,1243589
Q823762,Ogooué-Lolo Province,Ogooué-Lolo Province,奧果韋-洛洛省|Ogooué-Lolo|Ogooué-Lolo|Ogooué-Lolo,GA,-1.0,12.5,2396925,1243588
Q850022,Inchiri Region,Inchiri region,因希里省|Inchiri|Inchiri|Inchiri,MR,20.066668,-15.066667,2378903,3395037
Q850036,Maradi Region,Maradi Region,马拉迪大区|Región de Maradi|Maradi|Maradi,NE,13.5,7.1,2441289,3218803
Q850043,Cascades Region,Cascades Region,瀑布大區|Región Cascades|Cascades|Cascades,BF,10.25,-4.5,6930703,2745987
Q850055,Dosso Region,Dosso Region,多索大区|Región de Dosso|Dosso|Dosso,NE,13.05,3.2,2445486,3218802
Q850064,Centre-Nord Region,Centre-Nord Region,中北大區|Centre-Nord|Región Centro-Norte|Centre-Nord,BF,13.25,-1.0,6930706,2746040
Q850075,Centre-Ouest Region,Centre-Ouest Region,中西大區|Región Centro-Oeste|Centre-Ouest|Centre-Ouest,BF,11.75,-2.25,6930707,2813987
Q868784,Southern Region,"Southern Region, Malawi",Southern Region|Sud|南部区|Región del Sur,MW,-15.666667,34.966667,923817,3365670
Q868827,Northern Region,"Northern Region, Malawi",北部区|Région Nord|Región del Norte|Northern Region,MW,-11.2,33.8,924591,3365674
Q870130,Lofa County,Lofa County,洛法县|Lofa County|Lofa|Lofa,LR,7.9166665,-10.0,2275344,3320953
Q870138,Maryland County,Maryland County,馬里蘭縣|Maryland|Condado de Maryland|Maryland County,LR,4.75,-7.75,2275099,3315051
Q870146,Nzérékoré Region,Nzérékoré Region,恩澤雷科雷大區|Nzérékoré|Nzérékoré|Region Nzérékoré,GN,8.5,-9.0,8335091,3399113
Q1475374,Paul,"Paul, Cape Verde",保爾縣|Paul|Paul|Paul,CV,17.12,-25.025,3374391,4019982
Q1476285,Saint John Parish,"Saint John Parish, Dominica",Parroquia de Saint John|Saint-John|Saint John|聖約翰區,DM,15.583333,-61.466667,3575626,2315070
Q1476289,Saint John Parish,"Saint John Parish, Grenada",聖約翰區 (格林納達)|Paroisse de Saint John|Parroquia de Saint John|Saint John,GD,12.166667,-61.733334,3579919,12343999
Q1476294,Saint Peter Parish,"Saint Peter Parish, Dominica",Parroquia de Saint Peter|Saint-Peter|Saint Peter|聖彼得堂區,DM,15.485278,-61.461666,3575618,2325659
Q1476302,Saint Joseph Parish,"Saint Joseph Parish, Dominica",聖約瑟夫堂區|Saint-Joseph|Parroquia de Saint Joseph|Saint Joseph,DM,15.406944,-61.425,3575625,2325658
Q205784,Portuguesa,Portuguesa (state),波图格萨州|Portuguesa|Portuguesa|Portuguesa,VE,9.1,-69.26667,3629941,272661
Q205796,Lara,Lara (state),Lara|Lara|Lara|拉腊州,VE,10.07,-69.86,3636539,272744
Q205824,Sucre,Sucre (state),Sucre|Sucre|Sucre|苏克雷州,VE,10.55,-63.2,3626655,272671
Q823774,Ngounié Province,Ngounié Province,Provincia de Ngounié|Ngounié|Ngounié|恩古涅省,GA,-1.6,11.0,2397466,1243583
Q823800,Woleu-Ntem Province,Woleu-Ntem Province,沃勒-恩特姆省|Woleu-Ntem|Provincia de Woleu-Ntem|Woleu-Ntem,GA,1.2904305,11.8355,2396076,1243582
Q823810,Eastern Province,"Eastern Province, Zambia",东方省|Province orientale|Provincia del Este|Ostprovinz,ZM,-13.0,32.25,917388,318865
Q823822,Ogooué-Ivindo Province,Ogooué-Ivindo Province,奧果韋-伊溫多省|Ogooué-Ivindo|Provincia de Ogooué-Ivindo|Ogooué-Ivindo,GA,0.6,12.7,2396926,1243581
Q850088,Est Region,Est Region (Burkina Faso),Región Este|東部大區|Est|Est,BF,12.25,1.0,6930709,1143562
Q850423,Qacha's Nek District,Qacha's Nek District,加查斯內克區|Qacha's Nek|Distrito de Qacha's Nek|Qacha’s Nek,LS,-30.0,28.75,932219,1252928
Q850435,Hodh El Gharbi Region,Hodh El Gharbi region,西胡德省|Hodh El Gharbi|Hod Occidental|Hodh El Gharbi,MR,16.5,-10.0,2379024,3395036
Q852039,Al Buraimi Governorate,Al Buraimi Governorate,Buraimi|Al Buraymi|Buraimi|布賴米省,OM,24.25,55.783333,7110710,3781313
Q852089,Kep Province,Kep province,白馬省|Kep|Provincia de Kep|Kep,KH,10.4833,104.3,1830937,2200024
Q852089,Kep Province,Kep province,白馬省|Kep|Provincia de Kep|Kep,KH,10.5125,104.31667,1830937,2200024
Q853152,Eastern Province,"Eastern Province, Rwanda",东部省|Est|Provincia del Este|Ostprovinz,RW,-1.75,30.5,6413337,171591
Q870155,Western Region,Western Region (Ghana),西部地區|Région Occidentale|Región Occidental|Western Region,GH,5.5,-2.5,2294076,3498734
Q870166,Faranah Region,Faranah Region,Faranah|Faranah|法拉納大區|Region Faranah,GN,10.0,-10.833333,8335086,3403910
Q870191,Kankan Region,Kankan Region,康康大區|Kankan|Kankan|Region Kankan,GN,10.5,-9.25,8335087,3403911
Q871083,Tahoua Region,Tahoua Region,塔瓦大区|Región de Tahoua|Tahoua|Tahoua,NE,14.883333,5.266667,2439374,3218805
Q871222,Kayangel,Kayangel,Kayangel|Kayangel|Kayangel|卡揚埃爾,PW,7.41667,134.51666,1559774,3825302
Q872212,Gabú Region,Gabú region,Gabu|Región de Gabú|Gabú|加布區,GW,12.166667,-14.166667,2372533,1761583
Q1526538,Reykjavík North,Reykjavík North (Althing constituency),雷克雅未克北部选区|Reykjavíkurkjördæmi norður|Reykjavíkurkjördæmi Norður|Reykjavíkurkjördæmi norður,IS,64.15,-21.866667,,2849240
Q1532634,Ragged Island,"Ragged Island, Bahamas",拉吉德岛|Isla Ragged|Ragged Island|Ragged Island,BS,22.216667,-75.73333,3571629,3776664
Q1538034,Saint Mary Cayon Parish,Saint Mary Cayon Parish,聖瑪麗卡永區|Saint-Mary Cayon|Parroquia de Saint Mary Cayon|Saint Mary Cayon,KN,17.360832,-62.75611,3575173,9280617
Q1540098,Mayaguana,Mayaguana,馬亞瓜納島|Mayaguana|Mayaguana|Mayaguana,BS,22.375834,-72.90833,3571893,3775742
Q1540744,Saint George Basseterre Parish,Saint George Basseterre Parish,Saint-George Basseterre|Parroquia de Saint George Basseterre|Saint George Basseterre|圣乔治巴斯特尔区,KN,17.291668,-62.691666,3575180,9280615
Q1585725,Sofia City,Sofia City Province,索菲亞市州|Sofia-ville|Sofía-Ciudad|Oblast Sofia-Stadt,BG,42.7,23.333334,731061,1739543
Q1587261,Municipality of Oplotnica,Municipality of Oplotnica,Oplotnica|Oplotnica|Oplotnica|奥普洛特尼察市镇,SI,46.37994,15.448645,3344915,1676312
Q1587704,Municipality of Semič,Municipality of Semič,塞米奇市镇|Gemeinde Semič|Municipalité de Semič|Municipalidad Semič,SI,45.654446,15.178333,3239195,1681528
Q1676934,Anse la Raye Quarter,Anse la Raye District,district d'Anse-la-Raye|昂斯拉雷區|Distrito de Anse La Raye|Anse-la-Raye,LC,13.9163885,-61.016388,3576891,9304002
Q1687545,South East Community Development Council,South East Community Development Council,东南社区发展理事会|District du Sud-Est|Consejo del Sudeste (Singapur)|Südost,SG,1.325,103.899,7535956,3831715
Q1688771,Municipality of Jezersko,Municipality of Jezersko,耶泽尔斯科市镇|Municipalidad del Jezersko|Jezersko|Jezersko,SI,46.392776,14.4975,3344894,1675621
Q1771681,Spanish Wells,Spanish Wells,西艦井|Spanish Wells|Spanish Wells|Spanish Wells,BS,25.545834,-76.76111,8030558,3776669
Q205843,Vargas state,La Guaira (state),巴尔加斯州|Estado Vargas|La Guaira|La Guaira,VE,10.566667,-66.86667,3830309,2442703
Q206519,Lira District,Lira District,利拉區|Distrito de Lira|Distrikt Lira|Lira,UG,2.0833333,33.166668,443349,305377332
Q207068,Chon Buri,Chonburi province,春武里府|Provincia de Chon Buri|Chonburi|Chonburi,TH,13.228419,101.17131,1611108,1908773
Q207199,Lisbon,Lisbon District,district de Lisbonne|里斯本區|Distrito de Lisboa|Distrikt Lissabon,PT,38.7,-9.183333,2267056,2897141
Q823946,Northwest,Northwest Region (Cameroon),西北區|Región del Noroeste|Nord-Ouest|Nord-Ouest,CM,5.961389,10.151667,2223602,2750874
Q823976,Far North,Far North Region (Cameroon),極北區|Extrême-Nord|Región del Extremo Norte|Extrême-Nord,CM,10.594722,14.326111,2231755,2749663
Q824373,Upper River Division,Upper River Division,上河區|Upper River|División Upper River|Upper River Region,GM,13.394444,-14.175278,2411711,7224884
Q853162,Southern Province,"Southern Province, Rwanda",Sud|南部省|Provincia Sur|Südprovinz,RW,-2.6219444,29.608055,6413341,1707122
Q853272,Sabaragamuwa Province,Sabaragamuwa Province,薩伯勒格穆沃省|Sabaragamuwa|Sabaragamuwa|Sabaragamuwa,LK,6.6666665,80.4,1228435,4630838
Q853405,Centre-Sud Region,Centre-Sud Region,中南大區|Centre-Sud|Región Centro-Sur|Centre-Sud,BF,11.5,-1.1666666,6930708,2746024
Q853460,Savanes Region,Savanes Region (Ivory Coast),Savanes|Savanes|Savanes|萨瓦纳区,CI,9.5,-5.5,2597320,
Q853664,Morobe Province,Morobe Province,莫雷贝省|Morobe|Morobe|Morobe Province,PG,-6.8333335,146.66667,2090468,
Q872228,Biombo Region,Biombo region,比翁博區|Región de Biombo|Region Biombo|Biombo,GW,11.833333,-15.75,2374820,1761579
Q873012,Gash-Barka Region,Gash-Barka region,加什-巴爾卡區|Gash-Barka|Gash-Barka|Gash-Barka,ER,15.25,37.5,448500,4605551
Q873740,Rivière Noire District,Rivière Noire District,district de Rivière Noire|黑河區|Distrito de Black River|Black River,MU,-20.333334,57.416668,934718,3488093
Q874935,Manus Province,Manus Province,馬努斯省|Provincia de Manus|Manus Province|Manus,PG,-2.0833333,147.0,2091495,
Q874942,Central Province,Central Province (Papua New Guinea),province centrale|Central Province|中央省|Provincia Central,PG,-9.152778,147.23111,2133763,
Q874942,Central Province,Central Province (Papua New Guinea),province centrale|Central Province|中央省|Provincia Central,PG,-10.0,148.0,2133763,
Q874962,Milne Bay Province,Milne Bay Province,米爾恩灣省|Baie de Milne|Provincia de Milne Bay|Milne Bay Province,PG,-10.25,150.0,2132895,
Q874980,Gulf Province,Gulf Province,海灣省|Golfe|Provincia del Golfo|Gulf Province,PG,-7.3333335,145.0,2096633,
Q876023,Rangpur Division,Rangpur Division,Rangpur|Rangpur|Rangpur|朗布尔专区,BD,25.833334,89.0,7671048,3921211
Q876293,Uva Province,Uva Province,烏沃省|Provincia de Uva|Uva|Uva,LK,6.59,81.03,1225265,4630840
Q1567791,Praslin Quarter,Praslin Quarter,普拉蘭區|Praslin|Praslin|Praslin,LC,13.866667,-60.908333,3576507,
Q1569014,Municipality of Naklo,Municipality of Naklo,Naklo|Municipalidad del Naklo|Gemeinde Naklo|纳克洛市镇,SI,46.29361,14.28667,3239104,1675677
Q1569014,Municipality of Naklo,Municipality of Naklo,Naklo|Municipalidad del Naklo|Gemeinde Naklo|纳克洛市镇,SI,46.269722,14.315278,3239104,1675677
Q1779775,Bosilovo Municipality,Bosilovo Municipality,博西洛沃市镇|Bosilovo|Municipalidad de Bosilovo|Opština Bosilovo,MK,41.43,22.75,862946,2589323
Q207319,Gorno-Badakhshan Autonomous Region,Gorno-Badakhshan,Haut-Badakhchan|Provincia de Alto Badajshán|Berg-Badachschan|山地巴达赫尚自治州,TJ,38.0,73.0,1221692,3279614
Q207635,Benishangul-Gumuz Region,Benishangul-Gumuz Region,Benishangul-Gumuz|Benishangul-Gumaz|Benishangul-Gumuz|本尚古勒-古馬茲州,ET,10.639014,35.733032,444181,1707653
Q207638,Gambela Region,Gambela Region,甘貝拉州|Gambela|Gambela|Gambela,ET,7.6184416,34.68933,444183,1707655
Q207795,Dornod Province,Dornod Province,Dornod|Dornod|Dornod-Aimag|东方省,MN,48.066666,114.5,2031799,269886
Q207809,Arkhangai Province,Arkhangai Province,后杭爱省|Arkhangai|Arhangay|Archangai-Aimag,MN,47.383335,101.5,2032855,270075
Q208284,Grevenmacher District,Grevenmacher District,格雷文馬赫區|district de Grevenmacher|Distrito de Grevenmacher|Distrikt Grevenmacher,LU,49.7,6.366667,2960513,
Q853861,Kaunas County,Kaunas County,考纳斯县|Kaunas|Provincia de Kaunas|Bezirk Kaunas,LT,55.0,24.0,864477,1069509
Q853948,Marijampolė County,Marijampolė County,马里扬波莱县|Marijampolė|Bezirk Marijampolė|Marijampolė,LT,54.666668,23.166666,864479,974211
Q853991,Oio Region,Oio region,奧約區|Oio|Región de Oio|Region Oio,GW,12.25,-15.25,2371071,1761584
Q854871,Mafraq Governorate,Mafraq Governorate,馬弗拉克省|Gobernación de Mafraq|Gouvernement Mafraq|Mafraq,JO,32.266666,36.155556,250583,2925608
Q855327,Kouilou Department,Kouilou Department,奎盧省|Kouilou|Kouilou|Kouilou,CG,-4.233333,11.933333,2258738,3220590
Q856010,Wellington Region,Wellington Region,惠灵顿大区|Región de Wellington|Wellington|Wellington,NZ,-41.283333,174.76666,2179538,1638991
Q856227,Nana-Grébizi Economic Prefecture,Nana-Grébizi,Nana-Grébizi|Nana-Grébizi|Nana-Gribizi|纳纳-格雷比济省,CF,7.0833335,19.25,2386243,2954784
Q876308,Southern Province,"Southern Province, Sri Lanka",南部省|Province du Sud|Provincia Sur|Südprovinz,LK,6.1666665,80.75,1227618,4630839
Q876339,North Western Province,"North Western Province, Sri Lanka",Provincia Noroeste|Nordwestprovinz|西北省|Province du Nord-Ouest,LK,7.75,80.166664,1232860,4630837
Q876506,Otjozondjupa Region,Otjozondjupa Region,Otjozondjupa|Otjozondjupa|Otjozondjupa|奧喬宗朱帕區,NA,-20.25,17.7,3371209,2279628
Q876512,Oshikoto Region,Oshikoto Region,奧希科托區|Oshikoto|Oshikoto|Oshikoto,NA,-18.5,17.0,3371208,2279627
Q876772,Galguduud,Galguduud,加勒古杜德州|Galguduud|Galguduud|Galguduud,SO,5.3369446,46.620277,59362,
Q1689560,Daraa Governorate,Daraa Governorate,gouvernorat de Deraa|德拉省|Gobernación de Dar'a|Gouvernement Dar'a,SY,32.86,36.21,170903,184886
Q1689560,Daraa Governorate,Daraa Governorate,gouvernorat de Deraa|德拉省|Gobernación de Dar'a|Gouvernement Dar'a,SY,32.15,36.033333,170903,184886
Q1725609,Saint Peter Basseterre Parish,Saint Peter Basseterre Parish,聖彼得巴塞特萊區|Saint-Peter Basseterre|Parroquia de Saint Peter Basseterre|Saint Peter Basseterre,KN,17.336945,-62.72889,3575168,9280616
Q1752101,Saint Thomas Middle Island Parish,Saint Thomas Middle Island Parish,聖托馬斯米德艾蘭區|Saint-Thomas Middle Island|Parroquia de Saint Thomas Middle Island|Saint Thomas Middle Island,KN,17.355278,-62.805832,3575164,9280613
Q1752122,Saint Thomas Lowland Parish,Saint Thomas Lowland Parish,Parroquia de Saint Thomas Lowland|Saint Thomas Lowland|聖托馬斯低地區|Saint-Thomas Lowland,KN,17.173332,-62.605278,3575165,9280619
Q1752127,Saint Paul Charlestown Parish,Saint Paul Charlestown Parish,聖保羅查爾斯敦區|Saint-Paul Charlestown|Parroquia de Saint Paul Charlestown|Saint Paul Charlestown,KN,17.135834,-62.61028,3575171,9280618
