wikidata_id,name,enwiki_title,alternate_names,country_code,latitude,longitude,geonames_id,osm_id
Q117714,Anambra State,Anambra State,Anambra|Anambra|Anambra|阿南布拉州,NG,6.3333335,7.0,2349961,3715505
Q119158,Federal District,Federal District (Brazil),聯邦區|District fédéral|Distrito Federal do Brasil|Distrito Federal,BR,-15.795,-47.75778,3463504,421151
Q66710,Daman and Diu,Daman and Diu,达曼-第乌|Daman et Diu|Damán y Diu|Daman und Diu,IN,20.426945,72.85,1271155,1953042
Q66743,Puducherry,Puducherry (union territory),Territoire de Pondichéry|Puducherry|Puducherry|本地治里,IN,11.93,79.83,1259424,
Q71699,Aomori Prefecture,Aomori Prefecture,青森縣|Préfecture d'Aomori|Prefectura de Aomori|Präfektur Aomori,JP,40.824665,140.74065,2130656,1834655
Q66117,Morelos,Morelos,莫雷洛斯州|Morelos|Morelos|Morelos,MX,18.7475,-99.070274,3522961,1376332
Q79861,Michoacán,Michoacán,米却肯州|Michoacán|Michoacán|Michoacán,MX,19.168612,-101.89972,3995955,2340636
Q123304,Antioquia Department,Antioquia Department,Antioquia|Antioquia|Departamento de Antioquia|安蒂奥基亚省,CO,6.2166667,-75.566666,3689815,1315120
Q123376,Ehime Prefecture,Ehime Prefecture,爱媛县|Préfecture d'Ehime|Prefectura de Ehime|Präfektur Ehime,JP,33.84161,132.76567,1864226,3795063
Q159736,Leinster,Leinster,Leinster|Leinster|Leinster|倫斯特省,IE,53.34778,-6.259722,7521314,278746
Q189655,Jász-Nagykun-Szolnok County,Jász-Nagykun-Szolnok County,亞斯-瑙吉孔-索爾諾克州|Jász-Nagykun-Szolnok|Jász-Nagykun-Szolnok|Komitat Jász-Nagykun-Szolnok,HU,47.25,20.5,719637,26935
Q189701,Terengganu,Terengganu,登嘉樓|Terengganu|Terengganu|Terengganu,MY,4.75,103.0,1733036,4444411
Q79840,Ardahan Province,Ardahan Province,阿尔达汉省|Ardahan|Provincia de Ardahan|Ardahan,TR,41.113056,42.820835,862470,1251450
Q79846,Aydın Province,Aydın Province,Provincia de Aydin|艾登省|Aydın|Aydın,TR,37.728333,27.937222,322819,
Q123258,Fukuoka Prefecture,Fukuoka Prefecture,福岡縣|préfecture de Fukuoka|prefectura de Fukuoka|Präfektur Fukuoka,JP,33.6,130.58333,1863958,1553735
Q158087,Chattogram Division,Chittagong Division,吉大港專區|Chittagong|Chittagong|Chittagong,BD,22.916666,91.5,1337200,
Q159477,Emirate of Ajman,Emirate of Ajman,阿吉曼|Ajman|Adschman|Ajman,AE,25.4,55.5,292933,3766482
Q181235,Panjshir,Panjshir Province,潘傑希爾省|Panchir|Panjshīr|Panjshir,AF,35.4275,69.735,6957555,
Q181342,Trnava Region,Trnava Region,特爾納瓦州|Región de Trnava|Tyrnauer Landschaftsverband|Trnava,SK,48.3775,17.588333,3343958,388266
Q189352,Nineveh Governorate,Nineveh Governorate,尼尼微省|Ninive|Gobernación de Nínive|Ninawa,IQ,36.0,42.466667,92877,
Q189541,Duhok Governorate,Duhok Governorate,杜胡克省|Dahuk|Gobernación de Duhok|Gouvernement Dahuk,IQ,37.05,43.15,97270,2969732
Q71707,Fukushima Prefecture,Fukushima Prefecture,Préfecture de Fukushima|Prefectura de Fukushima|Präfektur Fukushima|福島縣,JP,37.4,140.46666,2112922,1800608
Q72818,Haiphong,Haiphong,海防市|Haïphong|Hải Phòng|Hải Phòng,VN,20.8,106.666664,1581297,1902682
Q75445,Yozgat Province,Yozgat Province,Yozgat|Yozgat|约兹加特省|Provincia de Yozgat,TR,39.669445,35.269165,296560,
Q78980,San Luis Potosí,San Luis Potosí,San Luis Potosí|San Luis Potosí|San Luis Potosí|圣路易斯波托西州,MX,22.603333,-100.429726,3985605,4086617
Q79754,Querétaro,Querétaro,Querétaro|Querétaro|Querétaro|克雷塔羅州,MX,20.591,-100.391,3520914,2340903
Q79760,Bingöl Province,Bingöl Province,宾格尔省|Provincia de Bingöl|Bingöl|Bingöl,TR,39.04111,40.675835,321079,223444
Q119494,Mandalay Region,Mandalay Region,曼德勒省|Región del Mandalay|Mandalay-Region|Mandalay,MM,21.0,95.75,1311871,5996480
Q120730,Kyōto Prefecture,Kyoto Prefecture,京都府|Préfecture de Kyoto|Prefectura de Kioto|Präfektur Kyōto,JP,35.021667,135.75562,1857907,2137477
Q121104,Balkh,Balkh Province,巴尔赫省|Balj|Balch|Balkh,AF,36.7,67.11667,1147288,1674795
Q121233,Boyacá Department,Boyacá Department,博亚卡省|Departamento de Boyacá|Boyacá|Boyacá,CO,5.5333333,-73.36667,3688536,1390144
Q122723,Ōsaka Prefecture,Osaka Prefecture,大阪府|Préfecture d'Osaka|Prefectura de Osaka|Präfektur Osaka,JP,34.68639,135.52,1853904,341906
Q154002,Melekeok,Melekeok (town),梅萊凱奧克|Melekeok|Melekeok (ciudad)|Melekeok,PW,7.49333,134.63417,1559804,
Q155219,Niğde Province,Niğde Province,尼代省|Niğde|Provincia de Niğde|Niğde,TR,37.915833,34.69361,303826,154456
Q79918,Durango,Durango,Durango|Durango|Durango|杜蘭戈州,MX,24.934723,-104.91194,4011741,2399740
Q79920,Nayarit,Nayarit,Nayarit|Nayarit|Nayarit|納亞里特州,MX,21.743889,-105.22833,3995012,7695827
Q123934,Muğla Province,Muğla Province,穆拉省|Provincia de Muğla|Muğla|Muğla,TR,37.030277,28.50639,304183,
Q160284,Free State,Free State (province),自由邦省|État libre|Provincia del Estado Libre|Freistaat,ZA,-28.0,27.0,967573,92417
Q160420,Saga Prefecture,Saga Prefecture,佐賀縣|Préfecture de Saga|prefectura de Saga|Präfektur Saga,JP,33.283333,130.16667,1853299,1842150
Q181513,Bistrița-Năsăud County,Bistrița-Năsăud County,Bistrița-Năsăud|Bistrița-Năsăud|Kreis Bistrița-Năsăud|比斯特里察-訥瑟烏德縣,RO,47.1389,24.5003,684647,55466
Q181557,Kaohsiung,Kaohsiung,Kaohsiung|Kaohsiung|Kaohsiung|高雄市,TW,22.616667,120.3,1673820,2127079
Q181557,Kaohsiung,Kaohsiung,Kaohsiung|Kaohsiung|Kaohsiung|高雄市,TW,22.616667,120.3,7280289,2127079
Q181862,County Clare,County Clare,克莱尔郡|Comté de Clare|County Clare|Condado de Clare,IE,52.833332,-9.0,2965479,334885
Q181882,County Carlow,County Carlow,comté de Carlow|Condado de Carlow|County Carlow|卡洛郡,IE,52.666668,-6.8333335,2965767,285977
Q189710,Selangor,Selangor,雪兰莪|Selangor|Selangor|Selangor,MY,3.3333333,101.5,1733037,2932285
Q189747,Wasit Governorate,Wasit Governorate,瓦西特省|Gobernación de Wasit|al-Wasit|Wasit,IQ,32.666668,45.75,89693,
Q189822,Mahilioŭ Region,Mogilev Region,Moguilev|Woblast Mahiljou|莫吉廖夫州|Provincia de Maguilov,BY,53.7254,30.3863,625073,59162
Q79923,Puebla,Puebla,Puebla|Puebla|Puebla|普埃布拉州,MX,19.00361,-97.888336,3521082,1376491
Q79952,Aguascalientes,Aguascalientes,Aguascalientes|Aguascalientes|Aguascalientes|阿瓜斯卡連特斯州,MX,22.021667,-102.35639,4019231,2610002
Q125232,Nippes,Nippes,Nippes|Nippes|Département Nippes|尼普斯省,HT,18.45,-73.1,7115999,391834
Q125506,Iğdır Province,Iğdır Province,厄德尔省|Iğdır|Provincia de Iğdır|Iğdır,TR,39.893612,43.997776,443184,186434
Q125711,Cuvette-Ouest Department,Cuvette-Ouest Department,Cuvette-Ouest|Cuvette-Oeste|Cuvette-Ouest|西盆地省,CG,-0.8666667,14.8167,2593118,
Q125863,Yamagata,Yamagata Prefecture,山形縣|Préfecture de Yamagata|Prefectura de Yamagata|Präfektur Yamagata,JP,38.433334,140.13333,2110554,3790869
Q160734,Tokushima Prefecture,Tokushima Prefecture,Préfecture de Tokushima|Prefectura de Tokushima|Präfektur Tokushima|德島縣,JP,34.06575,134.55928,1850157,3795000
Q161258,Clipperton Island,Clipperton Island,克利珀頓島|île Clipperton|Isla Clipperton|Clipperton-Insel,FR,10.293889,-109.217224,4020095,
Q161454,Kagawa Prefecture,Kagawa Prefecture,Préfecture de Kagawa|Prefectura de Kagawa|Präfektur Kagawa|香川县,JP,34.34011,134.04327,1860834,3795064
Q182169,Eastern Division,"Eastern Division, Fiji",东部大区|Division orientale|División Este|Eastern Division,FJ,-18.5,180.0,4036647,4632580
Q182378,Putrajaya,Putrajaya,Putrajaya|Putrajaya|Putrajaya|布城,MY,2.93,101.69,1996552,4443881
Q189942,Northern District,Northern District (Israel),Nordbezirk|District nord|北部区|Distrito Norte,IL,32.833332,35.333332,294824,
Q190018,Komárom-Esztergom County,Komárom-Esztergom County,Komárom-Esztergom|Komárom-Esztergom|Komitat Komárom-Esztergom|科馬羅姆-埃斯泰爾戈姆州,HU,47.583332,18.333334,3049518,22252
Q190066,Luanda Province,Luanda Province,羅安達省|Provincia de Luanda|Provinz Luanda|Luanda,AO,-8.983,13.283,2240444,
Q190131,Saladin Governorate,Saladin Governorate,萨拉赫丁省|Salah ad-Din|Gobernación de Saladino|Salah ad-Din,IQ,34.45,43.583332,91695,
Q190406,Gorj County,Gorj County,戈爾日縣|Gorj|Gorj|Kreis Gorj,RO,45.04,23.3,676898,2261275
Q80007,Tamaulipas,Tamaulipas,塔毛利帕斯州|Tamaulipas|Tamaulipas|Tamaulipas,MX,24.287222,-98.56333,3516391,2415518
Q80011,Chiba Prefecture,Chiba Prefecture,千葉縣|Préfecture de Chiba|Prefectura de Chiba|Präfektur Chiba,JP,35.605,140.12334,2113014,2679957
Q126125,Saint Martin (French part),Collectivity of Saint Martin,法屬聖馬丁|Saint-Martin|Saint-Martin|San Martín,FR,18.075277,-63.06,3578421,
Q126874,Kütahya Province,Kütahya Province,屈塔希亚省|Provincia de Kütahya|Kütahya|Kütahya,TR,39.30472,29.59,305267,223172
Q162020,Toliara Province,Toliara Province,圖利亞拉省|Provincia de Toliara|Toliara|Toliara,MG,-22.75,44.25,10229493,3203749
Q162475,County Cork,County Cork,科克郡|comté de Cork|Condado de Cork|County Cork,IE,51.966667,-8.583333,2965139,332631
Q163239,Balochistan,"Balochistan, Pakistan",Baloutchistan|Baluchistán|Belutschistan|俾路支省,PK,30.12,67.01,1183606,357968
Q164421,Connacht,Connacht,康諾特省|Connacht|Connacht|Connacht,IE,53.78,-9.05,7521313,278721
Q182487,Sar-e Pol,Sar-e Pol Province,薩爾普勒省|Sar-é Pol|Sar-e Pul|Sar-i Pul,AF,35.6,66.3,1127106,
Q182493,Paktia,Paktia Province,帕克蒂亚省|Paktiyâ|Paktiyā|Paktia,AF,33.6,69.5,1131257,
Q182565,Phuket,Phuket Province,普吉府|Phuket|Provincia de Phuket|Phuket,TH,7.89,98.39833,1151253,2934604
Q190518,Szabolcs-Szatmár-Bereg County,Szabolcs-Szatmár-Bereg County,Szabolcs-Szatmár-Bereg|Szabolcs-Szatmár-Bereg|Komitat Szabolcs-Szatmár-Bereg|索博爾奇-索特馬爾-貝拉格州,HU,48.0,22.166666,715593,22268
Q190522,Somogy County,Somogy County,紹莫吉州|Komitat Somogy|Somogy|Somogy,HU,46.416668,17.583334,3045226,22225
Q80021,Daugavpils,Daugavpils,Daugavpils|Daugavpils|Daugavpils|陶格夫匹尔斯,LV,55.871387,26.516111,460413,1788369
Q127167,Western Cape,Western Cape,西開普省|Cap-Occidental|Provincia Occidental del Cabo|Westkap,ZA,-34.0,20.0,1085599,80501
Q127264,Yamaguchi Prefecture,Yamaguchi Prefecture,山口縣|Préfecture de Yamaguchi|prefectura de Yamaguchi|Präfektur Yamaguchi,JP,34.18611,131.4705,1848681,4016543
Q164474,Kamuli District,Kamuli District,卡穆利區|Distrito de Kamuli|Distrikt Kamuli|Kamuli,UG,1.0,33.166668,443340,
Q165352,Kerman Province,Kerman Province,Kermán|Kerman|Kerman|克爾曼省,IR,29.21,57.07,128231,229593
Q165376,Badakhshan,Badakhshan Province,巴达赫尚省|Badakhchan|Badajshán|Badachschan,AF,38.0,71.0,1147745,
Q165408,West Macedonia Region,Western Macedonia,Macédoine-Occidentale|Macedonia Occidental|Westmakedonien|西马其顿,GR,40.4,21.5,6697811,956701
Q165413,Baikonur,Baikonur,拜科努爾|Baikonur|Baikonur|Baïkonour,KZ,45.63,63.314,1538316,
Q182591,County Wicklow,County Wicklow,威克洛郡|comté de Wicklow|Condado de Wicklow|County Wicklow,IE,53.0,-6.4166665,2960935,282760
Q182614,Brașov County,Brașov County,Brașov|Kreis Brașov|Brașov|布拉索夫縣,RO,45.79,25.28,683843,2248612
Q182624,Cluj County,Cluj County,克魯日縣|Kreis Cluj|Cluj|Cluj,RO,46.775,23.5917,681291,91733
Q190550,Moravian-Silesian Region,Moravian-Silesian Region,摩拉維亞-西里西亞州|Moravie-Silésie|Región de Moravia-Silesia|Mährisch-Schlesische Region,CZ,49.8,18.0,3339573,442461
Q190687,Aragua,Aragua,Aragua|Aragua|Aragua|阿拉瓜州,VE,10.25,-67.6,3649110,272746
Q190690,Sălaj County,Sălaj County,Sălaj|Sălaj|Kreis Sălaj|瑟拉日縣,RO,47.2,23.05,668248,91685
Q80036,Amasya Province,Amasya Province,Provincia de Amasya|Amasya|Amasya|阿马西亚省,TR,40.699722,35.68639,752014,
Q80051,Ağrı Province,Ağrı Province,Provincia de Ağrı|Ağrı|Ağrı|阿勒省,TR,39.666668,43.166668,325163,186433
Q80088,Burdur Province,Burdur Province,Provincia de Burdur|Burdur|Burdur|布尔杜尔省,TR,37.42389,30.084444,320390,
Q127513,Kanagawa Prefecture,Kanagawa Prefecture,神奈川縣|Préfecture de Kanagawa|prefectura de Kanagawa|Präfektur Kanagawa,JP,35.44751,139.64235,1860291,2689487
Q127676,Trøndelag,Trøndelag,特倫德拉格|Trøndelag|Trøndelag|Trøndelag,NO,63.426945,10.393056,11862827,406567
Q127877,Nagano Prefecture,Nagano Prefecture,Préfecture de Nagano|Prefectura de Nagano|Präfektur Nagano|長野縣,JP,36.25,138.1,1856210,3560284
Q165459,Satu Mare County,Satu Mare County,薩圖馬雷縣|Kreis Satu Mare|Satu Mare|Satu Mare,RO,47.69,22.89,667869,72482
Q165575,Cova Lima Municipality,Cova Lima Municipality,科瓦利馬縣|Cova Lima|Cova-Lima|Cova Lima,TL,-9.316667,125.25,1639462,
Q165582,Merida,Mérida (state),Mérida|Mérida|Mérida|梅里达州,VE,8.48,-71.19,3632306,272635
Q165784,West Region,West Region (Cameroon),Región del Oeste|Ouest|西部区|Ouest,CM,5.4794445,10.419444,2222934,
Q182633,County Westmeath,County Westmeath,韋斯特米斯郡|Comté de Westmeath|Condado de Westmeath|County Westmeath,IE,53.5,-7.5,2960972,335446
Q182778,Vrancea County,Vrancea County,弗朗恰縣|Vrancea|Vrancea|Kreis Vrancea,RO,45.79,26.97,662447,2260187
Q182809,Haskovo Province,Haskovo Province,哈斯科沃州|Oblast Chaskowo|Khaskovo|Haskovo,BG,41.833332,25.916666,730436,1739545
Q190702,Harghita County,Harghita County,哈爾吉塔縣|Harghita|Harghita|Kreis Harghita,RO,46.36,25.8,676309,2248660
Q190711,Mureș County,Mureș County,穆列什縣|Mureș|Mureș|Kreis Mureș,RO,46.59,24.61,672628,2248573
Q190716,Central Province,"Central Province, Sri Lanka",中央省 (斯里蘭卡)|Province du Centre|Provincia Central|Zentralprovinz,LK,7.3333335,80.75,1249296,
Q190718,Central Province,"Central Province, Zambia",中央省 (赞比亚)|Province Centrale|Provincia Central|Zentralprovinz,ZM,-14.0,29.0,921064,318861
Q80252,Sinaloa,Sinaloa,锡那罗亚州|Sinaloa|Sinaloa|Sinaloa,MX,25.002777,-107.50278,3983035,2455086
Q80269,Zacatecas,Zacatecas,薩卡特卡斯州|Zacatecas|Zacatecas|Zacatecas,MX,23.292778,-102.700554,3979840,2399704
Q80370,Batman Province,Batman Province,巴特曼省|Batman|Provincia de Batman|Batman,TR,38.081944,41.407223,443186,
Q129003,French Southern and Antarctic Lands,French Southern and Antarctic Lands,法属南部和南极领地|Terres australes et antarctiques françaises|Tierras Australes y Antárticas Francesas|Französische Süd- und Antarktisgebiete,FR,-43.0,67.0,1546748,
Q167196,Kigali province,Kigali province,Kigali Ville,RW,-1.92361,30.01722,6413338,
Q167196,Kigali province,Kigali province,Kigali Ville,RW,-1.91667,30.08333,6413338,
Q167199,Vaslui County,Vaslui County,Vaslui|Vaslui|Kreis Vaslui|瓦斯盧伊縣,RO,46.59,27.77,663116,2256753
Q167279,Pemagatshel District,Pemagatshel District,佩马加策尔宗|Pemagatshel|Distrito de Pemagatshel|Pemagatshel,BT,27.0,91.25,1337287,
Q183021,Nimruz,Nimruz Province,尼姆鲁兹省|Nimrôz|Nimruz|Nimrus,AF,31.0,62.5,1131821,1674664
Q183028,Urozgan,Uruzgan Province,乌鲁兹甘省|Orozgân|Urūzgān|Urusgan,AF,32.8,66.0,1131461,
Q183032,Johor,Johor,柔佛州|Johor|Johor|Johor,MY,1.4872222,103.78111,1733049,2939653
Q183036,Jowzjan,Jowzjan Province,朱兹詹省|Djôzdjân|Jawzjān|Dschuzdschan,AF,36.75,66.0,1139049,
Q183056,Maidan Wardak,Maidan Wardak Province,Vardak|Wardak|Wardak|瓦尔达克省,AF,34.4,68.4,1121863,
Q191075,Baghdad Governorate,Baghdad Governorate,Gobernación de Bagdad|Gouvernorat Bagdad|巴格達省|Bagdad,IQ,33.333332,44.433334,98180,
Q191078,Tulcea County,Tulcea County,Kreis Tulcea|Tulcea|Tulcea|圖爾恰縣,RO,44.98,28.77,664517,2367044
Q191091,Karlovy Vary Region,Karlovy Vary Region,卡羅維發利州|Región de Karlovy Vary|Karlovy Vary|Karlovarský kraj,CZ,50.2,12.7,3339539,442314
Q80245,Quintana Roo,Quintana Roo,Quintana Roo|Quintana Roo|Quintana Roo|金塔納羅奧州,MX,19.6,-87.916664,3520887,2614434
Q128186,Saitama Prefecture,Saitama Prefecture,préfecture de Saitama|埼玉縣|prefectura de Saitama|Präfektur Saitama,JP,35.95,139.55,1853226,1768185
Q128196,Mie Prefecture,Mie Prefecture,Préfecture de Mie|Prefectura de Mie|Präfektur Mie|三重縣,JP,34.73025,136.50867,1857352,812190
Q128978,Kilis Province,Kilis Province,基利斯省|Provincia de Kilis|Kilis|Kilis,TR,36.800835,37.12389,443213,
Q165956,North West,North West (South African province),Nordwest|Provincia del Noroeste|Nord-Ouest|西北省,ZA,-27.0,26.0,1085598,349519
Q182844,Herat,Herat Province,Hérât|Herāt|Herat|赫拉特省,AF,34.0,62.0,1140025,
Q182888,Iași County,Iași County,Iași|雅西縣|Condado de Iași|Kreis Iași,RO,47.25,27.31,675809,2256747
Q182988,Dauphin Quarter,Dauphin Quarter,多芬區|Dauphin|Dauphin,LC,14.033334,-60.9,3576771,
Q183015,Samangan,Samangan Province,Samangân|Samangān|Samangan|萨曼甘省,AF,36.25,68.0167,1127766,
Q190922,Anzoátegui,Anzoátegui,Anzoátegui|Anzoátegui|Anzoátegui|安索阿特吉州,VE,10.144418,-64.67736,3649198,2267150
Q190930,Vysočina Region,Vysočina Region,Región de Vysočina|Kraj Vysočina|Vysočina|維索基納州,CZ,49.4,15.7,3339538,442453
Q191061,Grodno Region,Grodno Region,Woblast Hrodna|Hrodna|格羅德諾州|Provincia de Grodno,BY,53.75,25.333334,628035,59275
Q191065,Dolj County,Dolj County,多爾日縣|Kreis Dolj|Dolj|Dolj,RO,44.17,23.7,679134,2366970
Q191071,Hunedoara County,Hunedoara County,Hunedoara|Hunedoara|Hunedoara|胡內多阿拉縣,RO,45.78,22.93,675917,2248737
Q80434,Aichi Prefecture,Aichi Prefecture,愛知縣|Préfecture d'Aichi|Prefectura de Aichi|Präfektur Aichi,JP,35.18017,136.90666,1865694,3560336
Q80550,Van Province,Van Province,凡城省|Provincia de Van|Van|Van,TR,38.49917,43.670277,298113,223442
Q129387,Tekirdağ Province,Tekirdağ Province,Provincia de Tekirdağ|Tekirdağ|Tekirdağ|泰基尔达省,TR,41.086388,27.357779,738926,223470
Q129499,Gunma Prefecture,Gunma Prefecture,Préfecture de Gunma|Prefectura de Gunma|Präfektur Gunma|群馬縣,JP,36.366665,139.11667,1863501,
Q130290,Hyōgo Prefecture,Hyōgo Prefecture,兵庫縣|Préfecture de Hyōgo|Prefectura de Hyōgo|Präfektur Hyogo,JP,34.690815,135.18307,1862047,356912
Q167485,Nuristan,Nuristan Province,努尔斯坦省|Nourestân|Nūristān|Nuristan,AF,35.25,70.75,1444363,1674544
Q167514,Logone Oriental Region,Logone Oriental (region),東洛貢區|Logone Oriental|Región de Logone Oriental|Region Logone Oriental,TD,8.65,16.85,2429058,
Q167668,Liepāja,Liepāja,利耶帕亚|Liepāja|Liepāja|Liepāja,LV,56.508335,21.01111,457954,1810419
Q183139,Trenčín Region,Trenčín Region,特倫欽州|Región de Trenčín|Trenčiansky kraj|Trenčín,SK,48.894165,18.040556,3343957,388267
Q183314,Khyber Pakhtunkhwa,Khyber Pakhtunkhwa,开伯尔-普什图省|Khyber Pakhtunkhwa|Khyber Pakhtunkhwa|Khyber Pakhtunkhwa,PK,34.343,72.18,1168873,3780131
Q183487,Varna Province,Varna Province,Varna|Varna|瓦爾納州|Oblast Warna,BG,43.216667,27.466667,726051,1437135
Q191120,Jēkabpils,Jēkabpils,葉卡布皮爾斯|Jēkabpils|Jēkabpils|Jēkabpils,LV,56.4975,25.866388,459283,1806938
Q191164,Bolívar,Bolívar (state),玻利瓦爾州|Bolívar|Bolívar|Bolívar,VE,8.121944,-63.55,3648106,2269155
Q191164,Bolívar,Bolívar (state),玻利瓦爾州|Bolívar|Bolívar|Bolívar,VE,6.33333,-63.5,3648106,2269155
Q191174,Miranda,Miranda (state),Miranda|Miranda|Miranda|米兰达州,VE,10.250479,-66.42715,3632191,272673
Q80903,Hidalgo,Hidalgo (state),Hidalgo|Hidalgo|Hidalgo|伊達爾戈州,MX,20.478333,-98.86361,3527115,1376490
Q80908,Campeche,Campeche,坎佩切州|Campeche|Campeche|Campeche,MX,18.83639,-90.403336,3531730,2568834
Q80914,Tabasco,Tabasco,Tabasco|Tabasco|Tabasco|塔巴斯科州,MX,17.972221,-92.58889,3516458,2556680
Q130300,Miyazaki Prefecture,Miyazaki Prefecture,宮崎縣|Préfecture de Miyazaki|prefectura de Miyazaki|Präfektur Miyazaki,JP,32.016666,131.35,1856710,1842184
Q130308,Kumamoto Prefecture,Kumamoto Prefecture,prefectura de Kumamoto|Präfektur Kumamoto|préfecture de Kumamoto|熊本縣,JP,32.716667,130.66667,1858419,1842185
Q167764,Zavkhan Province,Zavkhan Province,扎布汗省|Zavkhan|Zavhan|Dsawchan-Aimag,MN,48.0,96.25,1516012,
Q168576,Jaluit Atoll,Jaluit Atoll,Jaluit|Jaluit|Jaluit|賈盧伊特環礁,MH,6.0,169.56667,7303501,
Q168787,Cabinda Province,Cabinda Province,喀丙達省|Cabinda|Cabinda|Provinz Cabinda,AO,-4.9341664,12.405278,2243266,
Q168949,Semnan Province,Semnan Province,Semnán|Semnan|Semnan|塞姆南省,IR,35.234722,53.920834,116401,241474
Q183498,Bratislava Region,Bratislava Region,布拉迪斯拉發州|Región de Bratislava|Pressburger Landschaftsverband|Bratislava,SK,48.14389,17.109722,3343955,388265
Q183539,County Louth,County Louth,劳斯郡|comté de Louth|condado de Louth|County Louth,IE,53.833332,-6.5,2962793,1763195
Q183544,County Meath,County Meath,Condado de Meath|County Meath|米斯郡|comté de Meath,IE,53.666668,-6.6666665,2962661,282818
Q191186,Carabobo,Carabobo,卡拉沃沃州|Carabobo|Carabobo|Carabobo,VE,10.193,-67.98,3646751,272745
Q191299,Bengo Province,Bengo Province,本哥省|Provinz Bengo|Bengo|Bengo,AO,-8.783334,13.983334,2243598,
Q191346,Pahang,Pahang,Pahang|彭亨|Pahang|Pahang,MY,3.75,102.5,1733042,4444595
Q191604,Heves County,Heves County,赫維什州|Heves|Heves|Komitat Heves,HU,47.833332,20.25,720002,22273
Q80953,Kasaï-Oriental,Kasaï-Oriental (former province),东开赛省|Kasaï-Oriental|Kasai Oriental|Kasaï-Oriental,CD,-4.9,24.2,214138,
Q130321,Mount Athos,Mount Athos,mont Athos|阿索斯山|Monte Athos|Athos,GR,40.157223,24.32639,736572,
Q130343,Federal Dependencies,Federal Dependencies of Venezuela,聯邦屬地|Dépendances fédérales|Dependencias Federales|Dependencias Federales,VE,10.929822,-65.35696,3640846,3399075
Q130553,Manisa Province,Manisa Province,马尼萨省|Provincia de Manisa|Manisa|Manisa,TR,38.749443,28.122778,304825,
Q168953,Aïn Defla Province,Aïn Defla Province,艾因迪夫拉省|Provincia de Aïn Defla|Ain Defla|Aïn Defla,DZ,36.31389,2.163889,2508226,
Q169376,Nagasaki Prefecture,Nagasaki Prefecture,長崎縣|Préfecture de Nagasaki|prefectura de Nagasaki|Präfektur Nagasaki,JP,32.966667,129.8,1856156,1842151
Q169923,County Galway,County Galway,Condado de Galway|County Galway|戈尔韦郡|comté de Galway,IE,53.333332,-9.0,2964179,335444
Q170024,Emirate of Ras Al Khaimah,Emirate of Ras Al Khaimah,拉斯海玛|Ras el Khaïmah|Ras al-Jaima|Ra’s al-Chaima,AE,25.783333,55.95,291075,3766485
Q183640,Banská Bystrica Region,Banská Bystrica Region,Región de Banská Bystrica|Banskobystrický kraj|班斯卡·比斯特理察州|région de Banská Bystrica,SK,48.72972,19.149166,3343954,388270
Q184228,Žilina region,Žilina Region,日利納州|Región de Žilina|Žilinský kraj|Žilina,SK,49.22278,18.739445,3056506,388269
Q184445,County Offaly,County Offaly,奧法利郡|comté d'Offaly|Condado de Offaly|County Offaly,IE,53.25,-7.5,2962187,335442
Q191616,Békés County,Békés County,貝凱什州|Békés|Békés|Komitat Békés,HU,46.7375,21.044722,722433,22266
Q191625,Tolna County,Tolna County,Komitat Tolna|Tolna|Tolna|托爾瑙州,HU,46.5,18.583334,3043845,22239
Q191653,Teleorman County,Teleorman County,特列奧爾曼縣|Kreis Teleorman|Teleorman|Teleorman,RO,43.656944,25.356945,665283,2366986
Q82096,Denizli Province,Denizli Province,代尼兹利省|Denizli|Provincia de Denizli|Denizli,TR,37.84016,29.06982,317106,
Q82112,State of Mexico,State of Mexico,État de Mexico|Estado de México|México|墨西哥州,MX,19.354166,-99.63084,3523272,1376489
Q131198,Heard Island and McDonald Islands,Heard Island and McDonald Islands,Heard und McDonaldinseln|赫德島和麥克唐納群島|îles Heard-et-MacDonald|Islas Heard y McDonald,AU,-53.09354,73.51699,1547314,2177227
Q131277,Gifu Prefecture,Gifu Prefecture,Prefectura de Gifu|Präfektur Gifu|préfecture de Gifu|岐阜縣,JP,35.483334,136.9,1863640,760746
Q131281,Ishikawa Prefecture,Ishikawa Prefecture,石川縣|Préfecture d'Ishikawa|Prefectura de Ishikawa|Präfektur Ishikawa,JP,36.633335,136.65,1861387,3794726
Q170041,Golestan Province,Golestan Province,Golestan|Golestán|Golestan|戈勒斯坦省,IR,36.8393,54.4444,443792,269903
Q170291,West Greece Region,Western Greece,西希腊|Grèce-Occidentale|Grecia Occidental|Westgriechenland,GR,38.2,21.4,6697810,910919
Q170309,Baghlan,Baghlan Province,巴格兰省|Baghlan|Baghlân|Baglan,AF,35.87,68.93,1147537,
Q184599,County Wexford,County Wexford,韦克斯福德郡|Wexford|Condado de Wexford|County Wexford,IE,52.5,-6.6666665,2960963,285981
Q184618,County Tipperary,County Tipperary,蒂珀雷里郡|comté de Tipperary|Condado de Tipperary|County Tipperary,IE,52.666668,-7.8333335,2961191,334372
Q184760,County Monaghan,County Monaghan,comté de Monaghan|Condado de Monaghan|Monaghan|莫纳亨郡,IE,54.244,-7.04,2962567,283647
Q184797,Sibiu County,Sibiu County,錫比烏縣|Kreis Sibiu|Sibiu|Sibiu,RO,45.87,24.23,667267,2248586
Q192232,Jerusalem District,Jerusalem District,耶路撒冷区|district de Jérusalem|Distrito de Jerusalén|Bezirk Jerusalem,IL,31.75389,35.036945,293198,
Q192536,Zlín Region,Zlín Region,兹林州|Región de Zlín|Zlínský kraj|Zlín,CZ,49.2,17.7,3339578,442449
Q192697,South Moravian Region,South Moravian Region,南摩拉維亞州|Moravie du Sud|Región de Moravia Meridional|Südmähren,CZ,49.1,16.6,3339536,442311
Q192702,Ústí nad Labem Region,Ústí nad Labem Region,région d'Ústí nad Labem|Región de Ústí nad Labem|Ústecký kraj|烏斯季州,CZ,50.5,13.85,3339577,442452
Q82681,Tlaxcala,Tlaxcala,Tlaxcala|Tlaxcala|Tlaxcala|特拉斯卡拉州,MX,19.428888,-98.160835,3515359,1375274
Q83069,Sakarya Province,Sakarya Province,Provincia de Sakarya|Sakarya|Sakarya|萨卡里亚省,TR,40.697224,30.456667,740352,223462
Q131287,Nara Prefecture,Nara Prefecture,Préfecture de Nara|Prefectura de Nara|Präfektur Nara|奈良縣,JP,34.685196,135.83295,1855608,358631
Q131293,Mardin Province,Mardin Province,马尔丁省|Provincia de Mardin|Mardin|Mardin,TR,37.31775,40.71533,304794,223436
Q170453,Amazonas,Amazonas (Venezuelan state),亞馬遜州|Amazonas|Amazonas|Amazonas,VE,3.5,-66.0,3649302,2269815
Q170462,Sarawak,Sarawak,砂拉越|Sarawak|Sarawak|Sarawak,MY,3.0380557,113.78111,1733038,3879784
Q170568,Yazd Province,Yazd Province,亞茲德省|Yazd|Yazd|Yazd,IR,31.8948,54.357,111821,3300249
Q184981,Shumen Province,Shumen Province,舒門州|Choumen|Shumen|Oblast Schumen,BG,43.25,27.0,864555,1739546
Q185221,Melaka,Malacca,马六甲|Malacca|Malaca|Malakka,MY,2.2,102.251,1733035,2939673
Q185309,Buzău County,Buzău County,Buzău|Buzău|Kreis Buzău|布澤烏縣,RO,45.27,26.77,683121,2355511
Q192811,Tel Aviv District,Tel Aviv District,特拉维夫区|district de Tel Aviv|Distrito de Tel Aviv|Bezirk Tel Aviv,IL,32.083332,34.8,293396,
Q192849,Vlorë County,Vlorë County,夫羅勒州|Condado de Vlorë|Qark Vlora|Vlorë,AL,40.166668,19.75,3344952,1255521
Q192853,Durrës County,Durrës County,condado de Durrës|Qark Durrës|Durrës|杜勒斯州,AL,41.5,19.583334,3344947,1249872
Q173500,County Dublin,County Dublin,comté de Dublin|Condado de Dublín|County Dublin|都柏林地區,IE,53.416668,-6.25,2964573,282800
Q173616,South Aegean,South Aegean,南愛琴|Égée-Méridionale|Egeo Meridional|Südliche Ägäis,GR,36.8,26.2,6697808,1851752
Q81551,Konya Province,Konya Province,Konya (province)|Provincia de Konya|Konya|科尼亚省,TR,37.872505,32.49207,306569,223133
Q81725,KwaZulu-Natal,KwaZulu-Natal,KwaZulu-Natal|KwaZulu-Natal|KwaZulu-Natal|夸祖魯-納塔爾省,ZA,-29.0,31.0,972062,349390
Q81863,Akita Prefecture,Akita Prefecture,秋田縣|Préfecture d'Akita|Prefectura de Akita|Präfektur Akita,JP,39.718613,140.1025,2113124,3791413
Q82089,Bolu Province,Bolu Province,博卢省|Provincia de Bolu|Bolu|Bolu,TR,40.679165,31.558332,750510,223461
Q130566,Maniema,Maniema,马涅马省|Maniema|Maniema|Maniema,CD,-2.95,25.95,209610,
Q130576,Kasaï-Occidental,Kasai-Occidental,Kasaï occidental|Kasai Occidental|Kasaï-Occidental|西开赛省,CD,-5.9,22.45,214139,
Q130625,North Kivu,North Kivu,北基伍省|Nord-Kivu|Kivu del Norte|Nord-Kivu,CD,-0.56666666,28.7,206938,
Q130626,Borno State,Borno State,博爾諾州|Borno|Borno|Borno,NG,11.5,13.0,2346794,
Q130840,Eastern Cape,Eastern Cape,Cap-Oriental|Provincia Oriental del Cabo|Ostkap|東開普省,ZA,-32.0,27.0,1085593,88574
Q184469,County Kerry,County Kerry,凱里郡|comté de Kerry|Condado de Kerry|Kerry,IE,52.166668,-9.75,2963517,332622
Q184548,Nitra Region,Nitra Region,Región de Nitra|Nitriansky kraj|Nitra|尼特拉州,SK,48.306946,18.08639,3343956,388268
Q184594,County Waterford,County Waterford,沃特福德郡|comté de Waterford|County Waterford|Waterford,IE,52.25,-7.5,2960991,283426
Q191670,Ilfov County,Ilfov County,Kreis Ilfov|伊爾福夫縣|Ilfov|Ilfov,RO,44.61,26.12,865518,2366996
Q191717,Mehedinți County,Mehedinți County,梅赫丁茨縣|Mehedinți|Mehedinți|Kreis Mehedinți,RO,44.63,22.88,673612,2366962
Q191792,Bayan-Ölgii Province,Bayan-Ölgii Province,巴彦乌列盖省|Bayan-Ölgii|Bayan-Ölgiy|Bajan-Ölgii-Aimag,MN,48.3,89.5,1516278,
Q83073,Aksaray Province,Aksaray Province,阿克萨赖省|Provincia de Aksaray|Aksaray|Aksaray,TR,38.430832,33.86222,443185,154454
Q83077,Kars Province,Kars Province,卡尔斯省|Kars|Província de Kars|Kars,TR,40.454723,43.060276,743942,186431
Q83081,Diyarbakır Province,Diyarbakır Province,迪亚巴克尔省|Diyarbakır|Provincia de Diyarbakır|Diyarbakır,TR,38.142223,40.27111,316540,
Q83102,Edirne Province,Edirne Province,埃迪尔内省|Edirne|Provincia de Edirne|Edirne,TR,41.12,26.520555,747711,223465
Q131314,Wakayama Prefecture,Wakayama Prefecture,和歌山县|Préfecture de Wakayama|Prefectura de Wakayama|Präfektur Wakayama,JP,34.22603,135.1675,1848938,908959
Q131320,Shizuoka Prefecture,Shizuoka Prefecture,Préfecture de Shizuoka|Prefectura de Shizuoka|Präfektur Shizuoka|靜岡縣,JP,34.91639,138.31639,1851715,3793581
Q131323,Misrata,Misrata,米蘇拉塔|Misrata|Misurata|Misrata,LY,32.377777,15.090138,2214846,
Q170570,Ilam Province,Ilam Province,伊拉姆省|Ilam|Ilam|Ilam,IR,33.6384,46.4226,130801,229766
Q170688,Santa Cruz de la Sierra,Santa Cruz de la Sierra,圣克鲁斯-德拉谢拉|Santa Cruz de la Sierra|Santa Cruz de la Sierra|Santa Cruz de la Sierra,BO,-17.789167,-63.1975,3904906,
Q185368,Hajdú-Bihar County,Hajdú-Bihar County,豪伊杜-比豪爾州|Hajdú-Bihar|Hajdú-Bihar|Komitat Hajdú-Bihar,HU,47.416668,21.5,720293,22267
Q185371,Coast Province,Coast Province,Provincia Costera|Côte|Coast|滨海省,KE,-3.0,39.5,199247,
Q185374,Zala County,Zala County,Zala|佐洛州|Komitat Zala|Zala,HU,46.666668,16.833334,3042613,22238
Q192866,Dibër County,Dibër County,第巴爾州|Dibër|condado de Dibër|Qark Dibra,AL,41.583332,20.25,865731,1249567
Q83274,Hatay Province,Hatay Province,Hatay|Hatay|哈塔伊省|Provincia de Hatay,TR,36.2,36.15,312394,
Q83342,Bartın Province,Bartın Province,Bartın|Bartın|Bartın|巴尔滕省,TR,41.604443,32.511112,862467,
Q83965,Kocaeli Province,Kocaeli Province,Provincia de Kocaeli|Kocaeli|Kocaeli|科贾埃利省,TR,40.852,29.878,742865,223473
Q131387,Muş Province,Muş Province,穆什省|Provincia de Muş|Muş|Muş,TR,39.000557,41.82722,304041,223440
Q131438,Munster,Munster,芒斯特省|Munster|Munster|Munster,IE,52.25,-9.0,7521315,278750
Q131597,Kırklareli Province,Kırklareli Province,Provincia de Kırklareli|Kırklareli|Kırklareli|克尔克拉雷利省,TR,41.68111,27.47139,743165,223469
Q171702,Chaharmahal and Bakhtiari Province,Chaharmahal and Bakhtiari Province,Chahar y Bajtiari|Tschahār Mahāl und Bachtiyāri|Tchaharmahal et Bakhtiari|恰哈馬哈勒－巴赫蒂亞里省,IR,32.3275,50.8546,139677,230033
Q172052,Badghis,Badghis Province,Bâdghîs|Bādgīs|Badghis|巴德吉斯省,AF,35.0,63.75,1147707,
Q185752,Khost,Khost Province,霍斯特省|Khôst|Chost|Jost,AF,33.4,69.9,1444362,
Q185845,Haifa District,Haifa District,海法区|district de Haïfa|Distrito de Haifa|Bezirk Haifa,IL,32.583332,35.0,294800,
Q185944,Kelantan,Kelantan,吉兰丹|Kelantan|Kelantan|Kelantan,MY,5.25,102.0,1733044,4443571
Q193031,Csongrád-Csanád County,Csongrád-Csanád County,瓊格拉德州|Csongrád-Csanád|Csongrád-Csanád|Komitat Csongrád-Csanád,HU,46.416668,20.25,721589,22265
Q193044,Ialomița County,Ialomița County,雅洛米察縣|Ialomița|Kreis Ialomița|Ialomița,RO,44.64,27.3,675848,2355517
Q193055,Giurgiu County,Giurgiu County,久爾久縣|Kreis Giurgiu|Giurgiu|Giurgiu,RO,44.16,25.9,677104,2366987
Q83239,Bitlis Province,Bitlis Province,Provincia de Bitlis|Bitlis|Bitlis|比特利斯省,TR,38.525833,42.38778,321022,223441
Q83273,Ibaraki Prefecture,Ibaraki Prefecture,Prefectura de Ibaraki|Präfektur Ibaraki|préfecture d'Ibaraki|茨城縣,JP,36.3,140.31667,2112669,2682940
Q83273,Ibaraki Prefecture,Ibaraki Prefecture,Prefectura de Ibaraki|Präfektur Ibaraki|préfecture d'Ibaraki|茨城縣,JP,36.233334,140.28334,2112669,2682940
Q131358,Shiga Prefecture,Shiga Prefecture,Préfecture de Shiga|Prefectura de Shiga|Präfektur Shiga|滋賀縣,JP,35.00436,135.8685,1852553,
Q131384,Malatya Province,Malatya Province,Provincia de Malatya|Malatya|Malatya|马拉蒂亚省,TR,38.347954,38.31788,304919,223426
Q171314,East Macedonia and Thrace,Eastern Macedonia and Thrace,东马其顿-色雷斯|Macédoine-Orientale-et-Thrace|Macedonia Oriental y Tracia|Ostmakedonien und Thrakien,GR,41.2,25.0,6697803,937937
Q171382,Bamyan,Bamyan Province,巴米扬省|Bâmiyân|Bamiyán|Bamiyan,AF,34.75,67.25,1147239,
Q171440,Mbomou River,Mbomou River,Mbomou|Río Bomu|Mbomou|姆博穆河,CF,4.129,22.436,218268,
Q171440,Mbomou River,Mbomou River,Mbomou|Río Bomu|Mbomou|姆博穆河,CF,5.0304,27.4412,218268,
Q171551,South Khorasan Province,South Khorasan Province,Süd-Chorasan|南呼羅珊省|Khorassan du Sud|Jorasán del Sur,IR,32.8653,59.2164,6201374,537658
Q185442,Laghman,Laghman Province,拉格曼省|Laghmân|Laġmān|Laghman,AF,34.66,70.2,1135022,
Q185575,Paktika,Paktika Province,Paktîkâ|Paktīkā|Paktika|帕克蒂卡省,AF,32.5,68.8,1131256,
Q185586,Timiș County,Timiș County,Kreis Timiș|蒂米什縣|Timiș|Timiș,RO,45.78,21.35,665091,2366863
Q185700,Vitebsk Region,Vitebsk Region,维捷布斯克州|Vitebsk|Provincia de Vítebsk|Wizebskaja Woblasz,BY,55.333332,29.0,620134,59506
Q192882,Najaf Governorate,Najaf Governorate,納傑夫省|An-Najaf|Gobernación de Nayaf|Gouvernement Nadschaf,IQ,31.116667,43.8,98862,
Q192942,Uvs Province,Uvs Province,Uvs|乌布苏省|Uvs|Uws-Aimag,MN,49.5,92.5,1514967,
Q192945,Govi-Altai Province,Govi-Altai Province,戈壁阿尔泰省|Govi-Altai|Govi-Altay|Gobi-Altai-Aimag,MN,45.5,96.0,1515917,
Q192945,Govi-Altai Province,Govi-Altai Province,戈壁阿尔泰省|Govi-Altai|Govi-Altay|Gobi-Altai-Aimag,MN,45.5,95.5,1515917,
Q192959,Minsk Region,Minsk Region,Provincia de Minsk|Woblast Minsk|Minsk|明斯克州,BY,53.666668,27.75,625142,59752
Q93195,Ulster,Ulster,Ulster|Úlster|Provinz Ulster|阿爾斯特省,IE,54.4,-7.0,7521316,278664
Q93195,Ulster,Ulster,Ulster|Úlster|Provinz Ulster|阿爾斯特省,IE,54.4,-7.0,7521316,3772997
Q93209,Hakkâri Province,Hakkâri Province,哈卡里省|Hakkari|Provincia de Hakkâri|Hakkâri,TR,37.46611,44.064445,312888,174742
Q102377,Blekinge County,Blekinge County,Blekinge|布萊金厄省|Provincia de Blekinge|Blekinge län,SE,56.283333,15.116667,2721357,54413
Q131664,Qom Province,Qom Province,Provincia de Qom|Ghom|Qom|庫姆省,IR,34.6456,50.8798,443794,537702
Q132409,Nalut,Nalut,Nalout|Nalut|Nalut|纳鲁特,LY,31.86861,10.981112,2214433,
Q132410,Mpumalanga,Mpumalanga,Mpumalanga|Mpumalanga|Mpumalanga|普馬蘭加省,ZA,-26.0,30.0,1085595,349556
Q132418,Northern Cape,Northern Cape,北開普省|Cap-Nord|Provincia Septentrional del Cabo|Nordkap,ZA,-30.0,22.0,1085596,86720
Q172216,Coral Sea Islands,Coral Sea Islands,珊瑚海群岛|Îles de la mer de Corail|islas del mar del Coral|Korallenmeerinseln,AU,-19.090834,150.90167,2170371,
Q173332,County Kildare,County Kildare,comté de Kildare|基尔代尔郡|Condado de Kildare|County Kildare,IE,53.166668,-6.75,2963435,285833
Q186195,Baranya County,Baranya County,巴蘭尼亞州|Komitat Baranya|Baranya|Baranya,HU,46.083332,18.233334,3055399,22234
Q186220,County Longford,County Longford,朗福德郡|comté de Longford|Condado de Longford|County Longford,IE,53.666668,-7.75,2962839,335445
Q186295,Košice Region,Košice Region,科希策州|région de Košice|Región de Košice|Košický kraj,SK,48.71611,21.863056,865084,388272
Q193250,Bulawayo,Bulawayo,布拉瓦约|Bulawayo|Bulawayo|Bulawayo,ZW,-20.166666,28.566668,894701,
Q193266,Liberec Region,Liberec Region,利贝雷茨州|Región de Liberec|Liberecký kraj|Liberec,CZ,50.7,15.0,3339541,442455
Q193268,Kirkuk Governorate,Kirkuk Governorate,基爾庫克省|Gobernación de Kirkuk|Kirkouk|Kirkuk,IQ,35.366665,44.133335,98410,
Q193295,Hradec Králové Region,Hradec Králové Region,Región de Hradec Králové|Královéhradecký kraj|Hradec Králové|赫拉德茨-克拉洛韋州,CZ,50.4,15.8,3339540,442463
Q103093,Västra Götaland County,Västra Götaland County,西约塔兰省|comté de Västra Götaland|Provincia de Västra Götaland|Västra Götalands län,SE,58.217026,11.733398,3337386,54367
Q103659,Skåne County,Skåne County,Provincia de Escania|Skåne län|斯科讷省|comté de Scanie,SE,55.995308,13.4417715,3337385,54409
Q103659,Skåne County,Skåne County,Provincia de Escania|Skåne län|斯科讷省|comté de Scanie,SE,55.995308,13.4417715,2678287,54409
Q132637,Mersin Province,Mersin Province,梅尔辛省|Mersin|Provincia de Mersin|Mersin,TR,36.67861,33.80528,311728,
Q132705,Niigata Prefecture,Niigata Prefecture,新潟縣|Préfecture de Niigata|Prefectura de Niigata|Präfektur Niigata,JP,37.616665,138.86667,1855429,
Q173620,North Aegean Region,North Aegean,Égée-Septentrionale|Egeo Septentrional|Nördliche Ägäis|北愛琴,GR,38.7,26.0,6697806,958517
Q186392,Ghōr,Ghor Province,Ghor|古爾省|Ghôr|Ġawr,AF,34.519722,65.255,1141103,
Q186395,Takhar,Takhar Province,塔哈尔省|Takhâr|Tahār|Tachar,AF,36.7,69.8,1123230,
Q186418,Kunduz Province,Kunduz Province,昆都士省|Kondôz|Qundūz|Kunduz,AF,36.8,68.8,1135690,1674564
Q186466,Almaty Region,Almaty Region,Provincia de Almaty|Almaty|Almaty|阿拉木圖州,KZ,45.0,78.0,1537162,215718
Q193307,Olomouc Region,Olomouc Region,奧洛穆克州|Región de Olomouc|Olomoucký kraj|Olomouc,CZ,49.716667,17.1,3339542,442459
Q193317,Pardubice Region,Pardubice Region,帕爾杜比采州|Región de Pardubice|Pardubický kraj|Pardubice,CZ,49.9,16.2,3339574,442460
Q193436,Lezhë County,Lezhë County,列澤州|Condado de Lezhë|Qark Lezha|Lezhë,AL,41.75,19.833334,3344949,1248935
Q103672,Jönköping County,Jönköping County,延雪平省|Provincia de Jönköping|Jönköpings län|Jönköping,SE,57.75,14.2,2702976,54374
Q103679,Jämtland County,Jämtland County,耶姆特兰省|Provincia de Jämtland|Jämtlands län|Jämtland,SE,63.0,14.66667,2703330,52826
Q103686,Norrbotten County,Norrbotten County,Norrbotten|Provincia de Norrbotten|Norrbottens län|北博滕省,SE,67.0,20.0,604010,52824
Q103691,Halland County,Halland County,哈兰省|Halland|Provincia de Halland|Hallands län,SE,56.75,13.0,2708794,54403
Q103699,Gävleborg County,Gävleborg County,Gävleborg|Provincia de Gävleborg|Gävleborgs län|耶夫勒堡省,SE,60.78062,16.655273,2712411,52832
Q103707,Kalmar County,Kalmar County,卡爾馬省|Provincia de Kalmar|Kalmar län|Kalmar,SE,56.733334,15.9,2702259,54417
Q103732,Dalarna County,Dalarna County,达拉纳省|Dalécarlie|Provincia de Dalarna|Dalarnas län,SE,60.67856,15.600586,2699767,52834
Q103738,Gotland County,Gotland County,Gotland|哥得兰省|Provincia de Gotland|Gotlands län,SE,57.5,18.5,2711508,941530
Q104036,Ventspils,Ventspils,文茨皮尔斯|Ventspils|Ventspils|Ventspils,LV,57.38972,21.564444,454311,93906
Q104231,Stockholm County,Stockholm County,斯德哥爾摩省|Comté de Stockholm|provincia de Estocolmo|Stockholms län,SE,59.333332,18.166666,2673722,54391
Q132720,Yamanashi Prefecture,Yamanashi Prefecture,山梨縣|Préfecture de Yamanashi|Prefectura de Yamanashi|Präfektur Yamanashi,JP,35.616665,138.61667,1848649,
Q132751,Shimane Prefecture,Shimane Prefecture,島根縣|Préfecture de Shimane|Prefectura de Shimane|Präfektur Shimane,JP,35.466667,133.05,1852442,3346137
Q132929,Toyama Prefecture,Toyama Prefecture,富山縣|Préfecture de Toyama|Prefectura de Toyama|Präfektur Toyama,JP,36.716667,137.15,1849872,
Q173808,Kandahar,Kandahar Province,坎大哈省|Kandahâr|Kandahar|Kandahar,AF,31.0,65.5,1138335,
Q132936,Okayama Prefecture,Okayama Prefecture,岡山縣|Préfecture d'Okayama|Prefectura de Okayama|Präfektur Okayama,JP,34.66175,133.93472,1854381,3794962
Q132945,Bushehr Province,Bushehr Province,布什爾省|Bouchehr|Buschehr|Bushehr,IR,28.9184,50.8382,139816,269575
Q173816,Kapisa,Kapisa Province,卡比萨省|Kâpîssâ|Kāpīsā|Kapisa,AF,35.0,69.7,1138255,
Q173821,Helmand,Helmand Province,赫尔曼德省|Helmand|Helmand|Helmand,AF,31.0,64.0,1140043,1674573
Q173822,Brest Region,Brest Region,Brest|布列斯特州|Provincia de Brest|Breszkaja Woblasz,BY,52.382504,25.199848,629631,59189
Q173830,Faryab,Faryab Province,法利亚布省|Fâryâb|Fāryāb|Faryab,AF,36.0,65.0,1142226,
Q173988,Moxico Province,Moxico Province,Provinz Moxico|Moxico|Moxico|莫希科省,AO,-11.791667,19.90611,875996,
Q186838,Vâlcea County,Vâlcea County,沃爾恰縣|Vâlcea|Vâlcea|Kreis Vâlcea,RO,45.08,24.11,662892,2261289
Q187334,Al Anbar Governorate,Al Anbar Governorate,安巴尔省|Gobernación de Ambar|al-Anbar|Al-Anbar,IQ,32.9,41.6,99592,
Q187373,Hamadan Province,Hamadan Province,Hamadan|哈馬丹省|Hamedan|Hamadán,IR,34.7982,48.5146,132142,241038
Q187402,County Cavan,County Cavan,卡文郡|comté de Cavan|Condado de Cavan|County Cavan,IE,53.916668,-7.25,2965534,283679
Q193438,Shkodër County,Shkodër County,士科德州|Shkodër|Condado de Shkodër|Qark Shkodra,AL,42.166668,19.75,3344950,1248293
Q193454,Gjirokastër County,Gjirokastër County,吉羅卡斯特州|Condado de Gjirokastër|Qark Gjirokastra|Gjirokastër,AL,40.166668,20.166666,865733,1253915
Q193464,Korçë County,Korçë County,Korçë|科赤州|Condado de Korçë|Qark Korça,AL,40.583332,20.666666,865734,1252589
Q193486,Dire Dawa,Dire Dawa,德雷达瓦|Dire Dawa|Dire Dawa|Dire Dawa,ET,9.583333,41.866665,444182,1707654
Q193494,Afar Region,Afar Region,阿法尔州|Región Afar|Afar|Afar,ET,11.816667,41.416668,444179,1707249
Q104257,Örebro County,Örebro County,厄勒布鲁省|Provincia de Örebro|Örebro län|Örebro,SE,59.266666,15.216667,2686655,54222
Q104746,Kronoberg county,Kronoberg County,Provincia de Kronoberg|Kronobergs län|Kronoberg|克鲁努贝里省,SE,56.79,14.44,2699050,54412
Q104877,Västerbotten County,Västerbotten County,西博滕省|Västerbotten|Provincia de Västerbotten|Västerbottens län,SE,64.344666,18.314209,2664415,52825
Q133083,Gauteng,Gauteng,Gauteng|Gauteng|Gauteng|豪登省,ZA,-26.0,28.0,1085594,349344
Q133879,Fukui Prefecture,Fukui Prefecture,福井縣|Préfecture de Fukui|Prefectura de Fukui|Präfektur Fukui,JP,35.983334,136.18333,1863983,357112
Q133888,Ashmore and Cartier Islands,Ashmore and Cartier Islands,Îles Ashmore-et-Cartier|Islas Ashmore y Cartier|Ashmore- und Cartierinseln|阿什莫尔和卡捷群岛,AU,-12.258333,123.041664,2077507,
Q174010,Kermanshah Province,Kermanshah Province,Kermanchah|Kermanshah|Kermānschāh|克爾曼沙汗省,IR,34.3,47.066666,128222,241037
Q174765,Middlesex County,"Middlesex County, Jamaica",Middlesex|米德爾塞克斯郡|Condado de Middlesex|Middlesex,JM,18.15,-77.2,3489497,
Q175021,Emirate of Umm Al Quwain,Emirate of Umm Al Quwain,欧姆古温|Umm al-Qaywayn|Umm al-Qaiwain|Oumm al Qaïwaïn,AE,25.55,55.55,290595,3766487
Q175706,Guéra Region,Guéra (region),蓋拉區|Región de Guéra|Region Guéra|Guéra,TD,12.182777,18.684723,2431555,
Q187677,Vas County,Vas County,沃什州|Komitat Vas|Vas|Vas,HU,47.166668,16.75,3043047,22250
Q187693,Fejér County,Fejér County,費耶爾州|Fejér|Fejér|Komitat Fejér,HU,47.166668,18.583334,3053028,22255
Q187712,Emirate of Abu Dhabi,Emirate of Abu Dhabi,阿布扎比|Abou Dabi|Abu Dabi|Abu Dhabi,AE,23.666666,54.0,292969,3766481
Q193551,Basra Governorate,Basra Governorate,Basra|巴士拉省|Al-Basra|Gobernación de Basora,IQ,30.366667,47.366665,89341,
Q193790,Elbasan County,Elbasan County,艾巴申州|Elbasan|condado de Elbasan|Qark Elbasan,AL,41.0,20.166666,865732,1250609
Q194098,Khovd Province,Khovd Province,科布多省|Khovd|Hovd|Chowd-Aimag,MN,47.0,92.75,1515696,
Q194273,Nógrád County,Nógrád County,諾格拉德州|Nógrád|Nógrád|Komitat Nógrád,HU,48.0,19.57,3047348,22274
Q104891,Västernorrland County,Västernorrland County,西诺尔兰省|Västernorrland|Provincia de Västernorrland|Västernorrlands län,SE,62.739723,16.93,2664292,52827
Q104926,Uppsala County,Uppsala County,Provincia de Upsala|Uppsala län|Uppsala|乌普萨拉省,SE,59.858334,17.65,2666218,54220
Q104940,Östergötland County,Östergötland County,东约特兰省|Östergötland|Provincia de Östergötland|Östergötlands län,SE,58.410557,15.613611,2685867,940675
Q105075,Västmanland County,Västmanland County,西曼兰省|Västmanland|Provincia de Västmanland|Västmanlands län,SE,59.75,16.33333,2664179,54221
Q133924,Ōita Prefecture,Ōita Prefecture,大分县|Préfecture d'Ōita|prefectura de Ōita|Präfektur Ōita,JP,33.238186,131.61261,1854484,356911
Q133935,Tottori Prefecture,Tottori Prefecture,Präfektur Tottori|鳥取縣|Préfecture de Tottori|Prefectura de Tottori,JP,35.503887,134.23772,1849890,
Q175931,Wotho Atoll,Wotho Atoll,沃托環礁|Wotho|Wotho|Wotho,MH,10.1,165.96666,2079845,
Q176081,East Azerbaijan Province,East Azerbaijan Province,東阿塞拜疆省|Azerbaïdjan oriental|Azerbaiyán Oriental|Ost-Aserbaidschan,IR,38.0766,46.28,142549,2232180
Q176164,Christ Church Nichola Town Parish,Christ Church Nichola Town Parish,Christ Church Nichola Town|Parroquia de Christ Church Nichola Town|Christ Church Nichola Town|基督教會尼古拉鎮區,KN,17.367779,-62.760277,3575476,9280609
Q177799,Moyen-Chari Region,Moyen-Chari (region),中沙里區|Región de Moyen-Chari|Region Moyen-Chari|Moyen-Chari,TD,9.1461115,18.384167,2427315,
Q178136,Sololá Department,Sololá Department,索洛拉省|Sololá|Sololá|Departamento Sololá,GT,14.773889,-91.1875,3588697,214713
Q187753,Győr-Moson-Sopron County,Győr-Moson-Sopron County,Győr-Moson-Sopron|Győr-Moson-Sopron|Komitat Győr-Moson-Sopron|傑爾-莫雄-肖普朗州,HU,47.6,17.3,3051977,22249
Q196674,Zaire Province,Zaire Province,Provincia de Zaire|Provinz Zaire|薩伊省|Zaïre,AO,-6.266667,14.233334,2236355,
Q197564,Zhemgang District,Zhemgang District,谢姆冈宗|Distrito de Zhemgang|Zhemgang|Zhemgang,BT,27.0,90.75,1337291,
Q199580,Central Greece Region,Central Greece (region),中希臘|Grèce-Centrale|Grecia Central|Mittelgriechenland,GR,38.583332,22.666666,6697800,910915
Q106789,Värmland County,Värmland County,Värmlands län|韦姆兰省|Värmland|Provincia de Värmland,SE,59.75,13.25,2664870,54223
Q106915,Södermanland County,Södermanland County,南曼兰省|Provincia de Södermanland|Södermanlands län|Södermanland,SE,58.77105,16.869507,2676207,54386
Q134093,Kōchi Prefecture,Kōchi Prefecture,高知縣|Préfecture de Kōchi|Prefectura de Kōchi|Präfektur Kōchi,JP,33.559696,133.53102,1859133,3795031
Q134187,Kırşehir Province,Kırşehir Province,克尔谢希尔省|Provincia de Kırşehir|Kırşehir|Kırşehir,TR,39.32389,34.129166,307513,154452
Q134228,Ardabil Province,Ardabil Province,阿爾達比勒省|Provincia de Ardebil|Ardabil|Ardabil,IR,38.2514,48.2973,413931,269635
Q134386,Kurdistan Province,Kurdistan Province,庫爾德斯坦省|Kurdistan|Kurdistán|Kordestān,IR,35.72778,46.96722,126584,241546
Q178283,County Limerick,County Limerick,comté de Limerick|Condado de Limerick|County Limerick|利默里克郡,IE,52.5,-8.75,2962941,334898
Q178382,Jūrmala,Jūrmala,尤爾馬拉|Jurmala|Jūrmala|Jūrmala,LV,56.968056,23.770277,459201,
Q178471,Nangarhar,Nangarhar Province,楠格哈尔省|Nangarhâr|Nangarhar|Nangarhar,AF,34.25,70.5,1132366,
Q178626,County Mayo,County Mayo,梅奧郡|comté de Mayo|Condado de Mayo|County Mayo,IE,53.9,-9.25,2962666,338539
Q178861,Botoșani County,Botoșani County,博托沙尼縣|Kreis Botoșani|Botoșani|Botoșani,RO,47.84,26.82,684038,2256729
Q187874,Plovdiv region,Plovdiv Province,Oblast Plowdiw|Plovdiv|Plovdiv|普羅夫迪夫州,BG,42.166668,24.75,728194,1739536
Q187874,Plovdiv region,Plovdiv Province,Oblast Plowdiw|Plovdiv|Plovdiv|普羅夫迪夫州,BG,42.266666,24.833334,728194,1739536
Q187925,Caraș-Severin County,Caraș-Severin County,卡拉什-塞維林縣|Caraș-Severin|Caraș-Severin|Kreis Caraș-Severin,RO,45.15,22.07,682714,2366873
Q188096,Penang,Penang,槟城|Penang|Penang|Penang,MY,5.4025,100.365,1733047,4445131
Q188147,Kunar,Kunar Province,库纳尔省|Kounar|Kunar|Kunar,AF,35.0,71.2,1135702,
Q188157,Parwan,Parwan Province,帕尔旺省|Parwân|Parwān|Parwan,AF,35.0,69.0,1131054,
Q107397,County Leitrim,County Leitrim,利特里姆郡|comté de Leitrim|Condado de Leitrim|Leitrim,IE,54.116665,-8.0,2962975,284368
Q108037,Valmiera,Valmiera,Valmiera|Valmiera|Valmiera|瓦爾米耶拉,LV,57.538055,25.423056,453754,1277822
Q109342,North Hwanghae Province,North Hwanghae Province,黄海北道|Hwanghae du Nord|Hwanghae del Norte|Hwanghae-pukto,KP,38.50639,125.75972,1876888,
Q134411,West Azerbaijan Province,West Azerbaijan Province,西亞塞拜然省|Azerbaïdjan occidental|West-Aserbaidschan|Azerbaiyán Occidental,IR,37.5528,45.0759,142550,241593
Q134413,Sinop Province,Sinop Province,Provincia de Sinope|Sinop|Sinop|锡诺普省,TR,41.609165,34.901943,739598,223457
Q134417,Markazi Province,Markazi Province,中央省|Markazi|Markazi|Markazi,IR,34.61861,49.944443,124763,229958
Q178872,Saint-Louis,Saint-Louis Region,Saint-Louis|Saint-Louis|Region Saint-Louis|聖路易區,SN,16.216667,-14.8,2246451,
Q178994,Australian Antarctic Territory,Australian Antarctic Territory,Territoire antarctique australien|Territorio Antártico Australiano|Australisches Antarktis-Territorium|澳洲南極洲領地,AU,-75.0,102.5,6635262,3394111
Q179029,Sabah,Sabah,沙巴|Sabah|Sabah|Sabah,MY,5.25,117.0,1733039,3879783
Q188166,Adrar Province,Adrar Province,阿德拉爾省|Provincia de Adrar|Wilaya Adrar|Adrar,DZ,27.880556,-0.297222,2508807,
Q188373,South Bohemian Region,South Bohemian Region,南波希米亚州|Bohême-du-Sud|Región de Bohemia Meridional|Südböhmen,CZ,49.083332,14.666667,3339537,442321
Q188399,Central Bohemian Region,Central Bohemian Region,中波希米亚州|Bohême centrale|Bohemia Central|Středočeský kraj,CZ,49.966667,14.5,3339576,442397
Q199910,Magdalena Department,Magdalena Department,马格达莱纳省|Departamento del Magdalena|Magdalena|Magdalena,CO,11.241944,-74.20528,3675686,1319097
Q200127,Tigray Region,Tigray Region,Tigré|Tigray|Tigray|提格里州,ET,13.575,39.0875,444187,1707148
Q200667,Ladakh,Ladakh,拉達克|Ladakh|Ladakh|Ladakh,IN,34.166668,77.583336,1265343,5515045
Q109348,North Pyongan Province,North Pyongan Province,P’yŏngan-pukto|平安北道|Pyongan du Nord|P'yŏngan del Norte,KP,40.1,124.4,1871954,356540
Q109361,North Hamgyong Province,North Hamgyong Province,咸镜北道|Hamgyong du Nord|Hamgyŏng del Norte|Hamgyŏng-pukto,KP,41.903,129.408,2044245,
Q109368,South Hamgyong Province,South Hamgyong Province,咸镜南道|Hamgyŏng du Sud|Hamgyŏng del Sur|Hamgyŏng-namdo,KP,40.24,127.531,1877450,
Q109380,South Pyongan Province,South Pyongan Province,Pyongan du Sud|P'yŏngan del Sur|P’yŏngan-namdo|平安南道,KP,39.25,125.85,1871952,
Q134907,Limpopo,Limpopo,林波波省|Provincia de Limpopo|Limpopo|Limpopo,ZA,-24.0,29.5,1085597,349547
Q139126,Zabul,Zabul Province,Zabol|Zābul|Zabul|扎布尔省,AF,32.1,67.1,1121143,
Q179325,County Sligo,County Sligo,comté de Sligo|Condado de Sligo|County Sligo|斯萊戈郡,IE,54.25,-8.666667,2961422,4085166
Q179424,County Donegal,County Donegal,comté de Donegal|Condado de Donegal|County Donegal|多尼戈爾郡,IE,54.917,-8.0,2964751,4085165
Q179437,County Roscommon,County Roscommon,羅斯康芒郡|County Roscommon|comté de Roscommon|Condado de Roscommon,IE,53.75,-8.25,2961731,335443
Q188503,Brăila County,Brăila County,Brăila|Brăila|Kreis Brăila|布勒伊拉縣,RO,45.11,27.68,683901,2355512
Q188505,Constanța County,Constanța County,康斯坦察縣|Kreis Constanța|Constanța|Constanța,RO,44.27,28.31,680962,2367022
Q188612,Pest County,Pest County,佩斯州|Komitat Pest|Pest|Pest,HU,47.416668,19.333334,3046431,22259
Q200697,Gilgit-Baltistan,Gilgit-Baltistan,吉尔吉特-巴尔蒂斯坦|Gilgit-Baltistan|Gilgit-Baltistán|Gilgit-Baltistan,PK,35.35,75.9,1168878,357995
Q200938,Loreto,Department of Loreto,洛雷托大区|Loreto|Loreto|Loreto,PE,-4.0,-74.32,3695238,1994077
Q201121,Yaracuy,Yaracuy,Yaracuy|Yaracuy|亚拉奎州|Yaracuy,VE,10.31,-68.71,3625210,272743
Q201121,Yaracuy,Yaracuy,Yaracuy|Yaracuy|亚拉奎州|Yaracuy,VE,10.33974,-68.73734,3625210,272743
Q201137,Delta Amacuro,Delta Amacuro,阿马库罗三角洲州|Delta Amacuro|Delta Amacuro|Delta Amacuro,VE,8.632279,-61.116943,3644541,272669
Q109386,Nampho,Nampo,南浦特別市|Namp'o|Namp'o|Nampo,KP,38.733334,125.4,1873757,
Q109838,Talas Region,Talas Region,Talas|塔拉斯州|Provincia de Talas|Gebiet Talas,KG,42.5,72.5,1527297,
Q110171,Ryanggang Province,Ryanggang Province,两江道|Ryanggang|Ryanggang|Ryanggang-do,KP,41.4,128.18333,2039332,
Q110218,Mwanza,Mwanza,Mwanza|Mwanza|Mwanza|姆万扎,TZ,-2.5166667,32.9,152224,
Q139626,Équateur,Équateur (former province),赤道省|Équateur|Équateur|Équateur,CD,0.047647,18.256,216661,
Q139907,Manawatū-Whanganui Region,Manawatū-Whanganui,马纳瓦图－旺加努伊|Manawatu-Wanganui|Manawatu-Wanganui|Manawatu-Wanganui,NZ,-39.6,175.6,2179671,
Q139918,Waikato Region,Waikato,懷卡托|Waikato|Waikato|Waikato,NZ,-37.5,175.33333,2180293,2094142
Q179559,Arad County,Arad County,Arad|Arad|Kreis Arad|阿拉德縣,RO,46.36,21.8,686253,2248721
Q179567,Argeș County,Argeș County,Argeș|Argeș|Kreis Argeș|阿爾傑什縣,RO,45.0,24.82,686192,2261315
Q179588,Bihor County,Bihor County,比霍爾縣|Bihor|Bihor|Kreis Bihor,RO,47.0722,21.9211,684878,91731
Q188661,Neamț County,Neamț County,尼亞姆茨縣|Neamț|Kreis Neamț|Neamț,RO,46.97,26.4,672460,2248675
Q188665,Prahova County,Prahova County,Prahova|Kreis Prahova|普拉霍瓦縣|Prahova,RO,45.1,26.02,669737,2355507
Q188665,Prahova County,Prahova County,Prahova|Kreis Prahova|普拉霍瓦縣|Prahova,RO,45.166668,26.0,669737,2355507
Q188732,Gomel Region,Gomel Region,戈梅利州|voblast de Homiel|Provincia de Gómel|Homelskaja Woblasz,BY,52.333332,29.666666,628281,59161
Q201162,Amazonas,"Department of Amazonas, Peru",亚马孙大区|Amazonas|Amazonas|Amazonas,PE,-6.22,-77.85,3699699,1973462
Q202068,Trujillo,Trujillo (state),特鲁希略州|Bundesstaat Trujillo|Trujillo|Trujillo,VE,9.417,-70.5,3625974,272634
Q202071,Falcón,Falcón,Falcón|Falcón|Falcón|法尔孔州,VE,11.172989,-69.85974,3640873,2269792
Q202075,Guárico State,Guárico,Guárico|Guárico|Guárico|瓜里科州,VE,8.7,-66.61,3640017,272663
Q113120,Sliven Province,Sliven Province,斯利文州|Sliven|Sliven|Oblast Sliwen,BG,42.166668,24.75,864557,1739540
Q115027,Isla de la Juventud,Isla de la Juventud,青年岛|île de la Jeunesse|Isla de la Juventud|Isla de la Juventud,CU,21.75,-82.85,3555601,1854614
Q115027,Isla de la Juventud,Isla de la Juventud,青年岛|île de la Jeunesse|Isla de la Juventud|Isla de la Juventud,CU,21.75,-82.85,3555601,5219730
Q115046,Granma Province,Granma Province,格拉玛省|Provincia de Granma|Provinz Granma|Granma,CU,20.3833,-76.6525,3558052,1854633
Q140083,Marlborough District,Marlborough Region,马尔堡|Marlborough|Marlborough|Marlborough,NZ,-41.883335,173.66667,2187304,4266977
Q140207,Taranaki Region,Taranaki,塔拉纳基大区|Taranaki|Taranaki|Taranaki,NZ,-39.3,174.13333,2181872,1643812
Q140246,Gisborne District,Gisborne District,吉斯伯恩大区|Gisborne|Gisborne Region|Gisborne,NZ,-38.233,178.147,2190767,
Q140631,Tainan,Tainan,Tainan|Tainan|臺南市|Tainan,TW,22.983334,120.183334,1668355,2418506
Q179779,Bacău County,Bacău County,巴克烏縣|Bacău|Bacău|Kreis Bacău,RO,46.42,26.78,685947,2248681
Q179830,Jelgava,Jelgava,Jelgava|Jelgava|Jelgava|叶尔加瓦,LV,56.65222,23.724445,459281,
Q180068,Kohgiluyeh and Boyer-Ahmad Province,Kohgiluyeh and Boyer-Ahmad Province,科吉盧耶－博韋艾哈邁德省|Kohguilouyeh-et-Bouyer-Ahmad|Kohkiluyeh y Buyer Ahmad|Kohgiluye und Boyer Ahmad,IR,30.67,51.6,126878,241478
Q188781,Southern District,Southern District (Israel),Südbezirk|南部区|district sud|Distrito Meridional,IL,30.666666,34.833332,294952,
Q188785,Central District,Central District (Israel),district centre|Distrito Central|Zentralbezirk|中央区,IL,31.933332,34.866665,294904,
Q188796,Galați County,Galați County,Kreis Galați|Galați|Galați|加拉茨縣,RO,45.79,27.78,677692,2260192
Q202107,Oromia Region,Oromia,Región de Oromía|Oromia|Oromia|奧羅米亞州,ET,7.989061,39.38118,444185,1707656
Q202484,Peloponnese Region,Peloponnese (region),伯罗奔尼撒|Péloponnèse|Periferia de Peloponeso|Peloponnes,GR,37.333332,22.416666,6697807,957717
Q202747,Buada District,Buada District,部亞達區|Buada|Buada|Buada,NR,-0.533333,166.91667,2110440,
Q202800,Somali Region,Somali Region,索馬里州|Región Somali|Somali|Somali,ET,7.4387307,44.296875,444186,1707658
Q202904,Sofia Province,Sofia Province,Oblast Sofia|Sofía|Sofia|索菲亞州,BG,42.666668,23.666666,727012,1739542
Q115256,Taoyuan City,"Taoyuan, Taiwan",Taoyuan|Taoyuan|Taoyuan|桃園市,TW,24.85,121.21667,1667900,2770986
Q115302,Holguín Province,Holguín Province,奥尔金省|Provincia de Holguín|Provinz Holguín|Holguín,CU,20.64,-74.9175,3556965,1854635
Q115310,Mayabeque Province,Mayabeque Province,瑪雅貝克省|Mayabeque|Provincia de Mayabeque|Provinz Mayabeque,CU,22.966667,-82.15,7668827,2579313
Q115318,Ruvuma Region,Ruvuma Region,魯伍馬區|Región de Ruvuma|Ruvuma|Ruvuma,TZ,-11.0,36.0,877416,
Q115319,Guantánamo Province,Guantánamo Province,关塔那摩省|Provincia de Guantánamo|Provinz Guantánamo|Guantánamo,CU,20.1333,-75.2,3557685,1854634
Q115325,Artemisa Province,Artemisa Province,阿爾特米薩省|Provincia de Artemisa|Provinz Artemisa|Artemisa,CU,22.816668,-82.76667,7668824,2576644
Q115334,Las Tunas Province,Las Tunas Province,拉斯图纳斯省|Provincia de Las Tunas|Provinz Las Tunas|Las Tunas,CU,20.9597,-76.9544,3550595,1854636
Q140646,Kachin State,Kachin State,克钦邦|Estado Kachin|Kachin-Staat|Kachin,MM,26.0,97.5,1321702,5996476
Q141026,Algiers Province,Algiers Province,阿尔及尔省|Alger|Provincia de Argel|Algier,DZ,36.7,3.2166667,2507475,
Q180075,North Khorasan Province,North Khorasan Province,Khorassan du Nord|Jorasán del Norte|Nord-Chorasan|北呼羅珊省,IR,37.4761,57.3317,6201376,225444
Q180231,County Kilkenny,County Kilkenny,基爾肯尼郡|comté de Kilkenny|Condado de Kilkenny|County Kilkenny,IE,52.583332,-7.25,2963397,285980
Q180330,Farah,Farah Province,法拉省|Farâh|Farāh|Farah,AF,32.5,63.5,1142263,1674802
Q188797,Dâmbovița County,Dâmbovița County,登博維察縣|Dâmbovița|Kreis Dâmbovița|Dâmbovița,RO,44.89,25.47,679385,2355471
Q188810,Emirate of Sharjah,Emirate of Sharjah,夏尔迦|Sharjah|Charjah|Schardscha,AE,25.35,55.433334,292673,3766486
Q188813,Maramureș County,Maramureș County,馬拉穆列什縣|Kreis Maramureș|Maramureș|Maramureș,RO,47.67278,24.005,673887,72481
Q203009,Amhara Region,Amhara Region,阿姆哈拉州|Región de Amhara|Amhara|Amhara,ET,11.6608,37.9578,444180,1707264
Q203193,"Southern Nations, Nationalities, and Peoples' Region","Southern Nations, Nationalities, and Peoples' Region","南方各族州|Région des nations, nationalités et peuples du Sud|Región de las Naciones, Nacionalidades y Pueblos del Sur|Region der südlichen Nationen, Nationalitäten und Völker",ET,7.0502777,38.495277,444188,1707657
Q204367,Zinder Region,Zinder Region,津德尔大区|Zinder|Región de Zinder|Zinder,NE,13.7,9.2,2437797,
Q204642,Ntungamo District,Ntungamo District,Ntungamo|恩通加莫区|Distrito de Ntungamo|Distrikt Ntungamo,UG,-0.9166667,30.266666,443361,
Q204876,Nueva Esparta,Nueva Esparta,新埃斯帕塔州|Nueva Esparta|Nueva Esparta|Nueva Esparta,VE,11.0,-64.0,3631462,2269770
Q115434,Villa Clara Province,Villa Clara Province,Provincia de Villa Clara|Provinz Villa Clara|Villa Clara|比亚克拉拉省,CU,22.4053,-79.9542,3534168,1923804
Q115438,Matanzas Province,Matanzas Province,Matanzas|马坦萨斯省|Provincia de Matanzas|Provinz Matanzas,CU,23.0511,-81.5753,3547394,1854616
Q142258,Kampong Cham Province,Kampong Cham Province,Kampong Cham|磅湛省|Kampong Cham|Kompung Cham,KH,11.983334,105.45,1831172,2200442
Q145793,Zamfara State,Zamfara State,扎姆法拉州|Zamfara|Zamfara|Zamfara,NG,12.166667,6.25,2595349,
Q180379,Rēzekne,Rēzekne,雷澤克內|Rēzekne|Rēzekne|Rēzekne,LV,56.506668,27.330833,456202,1865678
Q180414,Batha Region,Batha (region),巴塔区|Región de Batha|Region Batha|Batha,TD,13.214,18.336,2435899,
Q180415,Ghazni,Ghazni Province,加兹尼省|Ghazni|Gazni|Ghazni,AF,33.5,68.0,1141268,
Q180484,Epirus Region,Epirus (region),Épire|Epiro|Epirus|伊庇鲁斯,GR,39.5,20.833334,6697804,554424
Q180822,Mjini Magharibi Region,Mjini Magharibi Region,尚西巴西區|Unguja Ville et Ouest|Región de Zanzibar Urban/West|Zanzibar Urban/West,TZ,-6.1666665,39.25,148724,1614023
Q188890,Veszprém County,Veszprém County,維斯普雷姆州|Komitat Veszprém|Veszprém|Veszprém,HU,47.166668,17.75,3042925,22278
Q188895,Borsod-Abaúj-Zemplén County,Borsod-Abaúj-Zemplén County,包爾紹德-奧包烏伊-曾普倫州|Borsod-Abaúj-Zemplén|Borsod-Abaúj-Zemplén|Komitat Borsod-Abaúj-Zemplén,HU,48.25,21.0,722064,22271
Q188933,Kabul,Kabul Province,Kaboul|Kabul|喀布尔省|Provinz Kabul,AF,34.56,69.22,1138957,
Q188945,Olt County,Olt County,Olt|Olt|奧爾特縣|Kreis Olt,RO,44.4333,24.3667,671857,2366978
Q188947,Kedah,Kedah,Kedah|Kedah|Kedah|吉打,MY,6.1283336,100.36278,1733048,4444908
Q205057,Cusco Departament,Department of Cuzco,Departamento de Cusco|Cuzco|Cusco|库斯科大区,PE,-13.26,-72.11,3941583,1923695
Q205068,Arequipa,Department of Arequipa,阿雷基帕大区|Arequipa|Arequipa|Arequipa,PE,-15.86,-72.25,3947319,1879287
Q205078,Cajamarca,Department of Cajamarca,卡哈马卡大区|Cajamarca|Cajamarca|Cajamarca,PE,-6.61,-78.78,3699087,1896111
Q115441,Sancti Spíritus Province,Sancti Spíritus Province,圣斯皮里图斯省|Provincia de Sancti Spíritus|Provinz Sancti Spíritus|Sancti Spíritus,CU,21.9339,-79.4439,3540665,1923793
Q115444,Cienfuegos Province,Cienfuegos Province,Provincia de Cienfuegos|Provinz Cienfuegos|Cienfuegos|西恩富戈斯省,CU,22.1456,-80.4364,3564120,1854632
Q115497,Pinar del Río Province,Pinar del Río Province,比那尔德里奥省|Pinar del Río|Provincia de Pinar del Río|Provinz Pinar del Río,CU,22.4122,-83.6719,3544088,1854617
Q146726,Zanjan Province,Zanjan Province,Zandjan|贊詹省|Provincia de Zanjan|Zandschan,IR,36.6751,48.4845,111452,241473
Q147081,Zanzan Region,Zanzan Region,Region Zanzan|Zanzan|Zanzan|赞赞区,CI,8.616667,-3.15,2597325,
Q147081,Zanzan Region,Zanzan Region,Region Zanzan|Zanzan|Zanzan|赞赞区,CI,8.5,-3.25,2597325,
Q147116,Unguja North Region,Unguja North Region,尚吉巴北区|Unguja Nord|Región de Zanzibar North|Zanzibar North,TZ,-5.9166665,39.333332,148725,1614022
Q150325,Western Province,Western Province (Solomon Islands),Province occidentale|Provincia Occidental|Western|西部省,SB,-8.0,157.0,2101556,11916824
Q151909,Bolama region,Bolama Region,博拉馬區|Bolama-Bijagos|Región de Bolama|Bolama (Region),GW,11.333333,-16.083334,2374689,1761581
Q181018,Bács-Kiskun County,Bács-Kiskun County,巴奇-基什孔州|Bács-Kiskun|Bács-Kiskun|Komitat Bács-Kiskun,HU,46.5,19.416666,3055744,22260
Q181209,Suceava County,Suceava County,蘇恰瓦縣|Suceava|Suceava|Kreis Suceava,RO,47.58,25.76,665849,2077868
Q181220,Daykundi,Daykundi Province,Deykandi|Daikondi|Daikondi|代孔迪省,AF,33.75,66.25,6957553,
Q188948,Călărași County,Călărași County,克勒拉希縣|Kreis Călărași|Călărași|Călărași,RO,44.333332,27.55,683016,2367015
Q188953,Perak,Perak,Perak|Perak|Perak|霹雳,MY,4.75,101.0,1733041,4445076
Q188959,Covasna County,Covasna County,科瓦斯納縣|Kreis Covasna|Covasna|Covasna,RO,45.9,26.03,680428,2248621
Q205089,Áncash,Department of Ancash,Ancash|Ancash|Áncash|安卡什大区,PE,-9.53,-77.53,3699674,1953170
Q205104,Puno,Department of Puno,普诺大区|Puno|Puno|Puno,PE,-15.07,-70.12,3931275,1907899
Q205112,Ayacucho,Department of Ayacucho,阿亚库乔大区|Ayacucho|Ayacucho|Ayacucho,PE,-13.163055,-74.22444,3947018,1930901
Q205126,La Libertad,Department of La Libertad,拉利伯塔德大区|La Libertad|La Libertad|La Libertad,PE,-8.0,-78.5,3695781,1967959
Q152225,Bikini Atoll,Bikini Atoll,Bikini|Atolón Bikini|Bikini-Atoll|比基尼环礁,MH,11.583333,165.38333,2080855,3973841
Q152754,Ebon Atoll,Ebon Atoll,埃邦環礁|Ebon|Ebon|Ebon-Atoll,MH,4.633333,168.71666,7303498,
Q153009,Brunei-Muara District,Brunei-Muara District,汶莱摩拉县|Brunei-Muara|Brunei y Muara|Brunei-Muara,BN,4.9,114.9,1820818,
Q189001,Prešov Region,Prešov Region,région de Prešov|Región de Prešov|Prešovský kraj|普列索夫州,SK,49.001667,21.239445,865085,388271
Q189001,Prešov Region,Prešov Region,région de Prešov|Región de Prešov|Prešovský kraj|普列索夫州,SK,49.16667,21.25,865085,388271
Q189296,Berat County,Berat County,培拉特州|condado de Berat|Qark Berat|Berat,AL,40.633335,20.083334,865730,1252289
Q205460,Cojedes,Cojedes (state),Cojedes|科赫德斯州|Cojedes|Cojedes,VE,9.36,-68.32,3645386,272662
Q205776,Monagas,Monagas,莫納加斯州|Monagas|Monagas|Monagas,VE,9.43,-63.08,3632100,272670
Q205784,Portuguesa,Portuguesa (state),波图格萨州|Portuguesa|Portuguesa|Portuguesa,VE,9.11,-69.28,3629941,272661
Q205796,Lara,Lara (state),拉腊州|Lara|Lara|Lara,VE,10.07,-69.86,3636539,272744
Q849807,Western Highlands Province,Western Highlands Province,西高地省|Hautes-Terres occidentales|Tierras Altas Occidentales|Western Highlands Province,PG,-5.6666665,144.5,2083551,
Q849812,Eastern Highlands Province,Eastern Highlands Province,東高地省|Hautes-Terres orientales|Tierras Altas Orientales|Eastern Highlands Province,PG,-6.5,145.66667,2097855,
Q849841,Kanem Region,Kanem (region),加奈姆區|Kanem|Región de Kanem|Region Kanem,TD,14.1194,15.3133,2430873,
Q850022,Inchiri Region,Inchiri Region,因希里省|Inchiri|Inchiri|Inchiri,MR,20.066668,-15.066667,2378903,
Q850036,Maradi Region,Maradi Region,马拉迪大区|Región de Maradi|Maradi|Maradi,NE,13.5,7.1,2441289,
Q850043,Cascades Region,Cascades Region,Cascades|Cascades|瀑布大區|Región Cascades,BF,10.25,-4.5,6930703,2745987
Q850055,Dosso Region,Dosso Region,多索大区|Región de Dosso|Dosso|Dosso,NE,13.05,3.2,2445486,
Q1229930,Katakwi District,Katakwi District,卡塔奎區|Katakwi|Distrito de Katakwi|Distrikt Katakwi,UG,1.9166666,34.033333,443785,
Q1230005,Mityana District,Mityana District,米特亞納區|Distrito de Mityana|Distrikt Mityana|Mityana,UG,0.45,32.05,7056293,
Q1230035,Pader District,Pader District,帕德爾區|Distrito de Pader|Distrikt Pader|Pader,UG,2.8333333,33.083332,448222,
Q1231388,Grand'Anse Praslin,Grand'Anse Praslin,普拉蘭大安塞區|Grand'Anse|Grand' Anse (Praslin)|Grand Anse,SC,-4.331111,55.72222,241331,
Q1240193,Micoud Quarter,Micoud Quarter,米庫區|district de Micoud|Micoud|Micoud,LC,13.8,-60.933334,3576567,9302977
Q1247537,Manu'a District,Manuʻa District,馬努阿區|district de Manu'a|Condado Manu'a|Manu'a District,AS,-14.208611,-169.55278,5881436,7381453
Q1251933,Ruse Province,Ruse Province,魯塞州|Roussé|Oblast Russe|Ruse,BG,43.75,26.0,727524,1739538
Q1262745,Duarte Province,Duarte Province,杜華德省|Duarte|Duarte|Duarte,DO,19.3,-70.25,3508718,3420664
Q1647436,Saint Philip,"Saint Philip, Barbados",Parroquia de Saint Philip|聖菲利普區|Saint Philip|Saint Philip,BB,13.116667,-59.466667,3373553,3961386
Q1647439,Saint Andrew,"Saint Andrew, Barbados",Saint Andrew|聖安德魯區|Saint Andrew|Saint Andrew,BB,13.233334,-59.566666,3373580,3961379
Q1647443,Saint George,"Saint George, Barbados",聖喬治教區|Saint George|Parroquia de Saint George|Saint George,BB,13.133333,-59.533333,3373572,3961988
Q1647447,Saint Lucy,"Saint Lucy, Barbados",聖露西教區|Saint Lucy|Parroquia de Saint Lucy|Saint Lucy,BB,13.3,-59.616665,3373565,3961383
Q153326,Singida Region,Singida Region,辛吉達區|Región de Singida|Singida|Singida,TZ,-5.5,34.5,149876,
Q153329,Rukwa Region,Rukwa Region,魯夸區|Rukwa|Región de Rukwa|Rukwa,TZ,-7.0,31.5,150442,
Q153335,Tabora Region,Tabora Region,塔波拉區|Tabora|Región de Tabora|Tabora,TZ,-5.5,32.833332,149653,
Q153339,Shinyanga Region,Shinyanga Region,欣延加區|Región de Shinyanga|Shinyanga|Shinyanga,TZ,-3.75,33.0,150004,
Q205824,Sucre,Sucre (state),Sucre|Sucre|Sucre|苏克雷州,VE,10.6455555,-63.038887,3626655,272671
Q205843,Vargas state,Vargas (state),Estado Vargas|La Guaira|Vargas|瓦尔加斯州,VE,10.572,-66.88,3830309,2442703
Q206519,Lira District,Lira District,利拉區|Distrito de Lira|Distrikt Lira|Lira,UG,2.0833333,33.166668,443349,
Q207068,Chon Buri,Chonburi Province,春武里府|Provincia de Chon Buri|Chon Buri|Chonburi,TH,13.362223,100.98333,1611108,1908773
Q207199,Lisbon,Lisbon District,里斯本區|District de Lisbonne|Distrito de Lisboa|Distrikt Lissabon,PT,38.7,-9.183333,2267056,2897141
Q207319,Gorno-Badakhshan Autonomous Region,Gorno-Badakhshan Autonomous Region,Provincia de Alto Badajshán|Berg-Badachschan|山地巴達赫尚自治州|Haut-Badakhchan,TJ,38.0,73.0,1221692,3279614
Q850064,Centre-Nord Region,Centre-Nord Region,中北大區|Centre-Nord|Región Centro-Norte|Centre-Nord,BF,13.25,-1.0,6930706,2746040
Q850075,Centre-Ouest Region,Centre-Ouest Region,中西大區|Región Centro-Oeste|Centre-Ouest|Centre-Ouest,BF,11.75,-2.25,6930707,2813987
Q850088,Est Region,Est Region (Burkina Faso),Región Este|東部大區|Est|Est,BF,12.25,1.0,6930709,1143562
Q850423,Qacha's Nek District,Qacha's Nek District,加查斯內克區|Qacha's Nek|Distrito de Qacha's Nek|Qacha’s Nek,LS,-30.0,28.75,932219,
Q850435,Hodh El Gharbi Region,Hodh El Gharbi Region,西胡德省|Hodh El Gharbi|Hod Occidental|Hodh El Gharbi,MR,16.5,-10.0,2379024,
Q852039,Al Buraimi Governorate,Al Buraimi Governorate,布賴米省|Buraimi|Buraimi (Gouvernement)|Al Buraymi,OM,24.25,55.783333,7110710,3781313
Q1267522,Crete Region,Crete (Region),克里特|Crète|Periferia de Creta|Kreta,GR,35.216667,24.916666,6697802,282436
Q1277758,East Berbice-Corentyne,East Berbice-Corentyne,东伯比斯-科兰太因|Berbice oriental-Courantyne|Berbice Oriental-Corentyne|East Berbice-Corentyne,GY,4.1079445,-58.18337,3378840,7109048
Q1291077,Saint Mark Parish,"Saint Mark Parish, Grenada",聖馬克區 (格林納達)|Paroisse de Saint Mark|Parroquia de Saint Mark|Saint Mark,GD,12.183333,-61.7,3579913,12343976
Q1295496,Monseñor Nouel Province,Monseñor Nouel Province,主教·瑙黎省|Monseñor Nouel|Monseñor Nouel|Monseñor Nouel,DO,18.95,-70.41,3496274,3420315
Q1608103,Northern Islands Municipality,Northern Islands Municipality,municipalité de Northern Islands|Municipio de las Islas del Norte|Gemeinde der Nördlichen Inseln,MP,18.1,145.76,7733156,306007
Q1626524,Christ Church,"Christ Church, Barbados",基督城教區|Parroquia de Christ Church|Christ Church|Christ Church,BB,13.083333,-59.533333,3373988,3961378
Q1626540,Saint John,"Saint John, Barbados",聖約翰教區|Parroquia de Saint John|Saint John|Saint John,BB,13.166667,-59.483334,3373569,3961381
Q1636779,Rose Atoll,Rose Atoll,Atol de Rose|Rose-Atoll|罗斯环礁,AS,-14.546667,-168.15195,7309441,4027787
Q1647432,Saint Thomas,"Saint Thomas, Barbados",Parroquia de Saint Thomas|Saint Thomas|Saint Thomas|聖托馬斯區,BB,13.183333,-59.583332,3373551,3961387
Q22,Scotland,Scotland,蘇格蘭|Schottland|Escocia|Écosse,GB,57.0,-5.0,2638360,58446
Q1752122,Saint Thomas Lowland Parish,Saint Thomas Lowland Parish,聖托馬斯低地區|Saint-Thomas Lowland|Parroquia de Saint Thomas Lowland|Saint Thomas Lowland,KN,17.173332,-62.605278,3575165,9280619
Q1752127,Saint Paul Charlestown Parish,Saint Paul Charlestown Parish,聖保羅查爾斯敦區|Saint-Paul Charlestown|Parroquia de Saint Paul Charlestown|Saint Paul Charlestown,KN,17.135834,-62.61028,3575171,9280618
Q1770796,Saint George Parish,"Saint George Parish, Antigua and Barbuda",聖喬治區|Saint-George|Parroquia de Saint George|Saint George,AG,17.116667,-61.8,3576024,9604933
Q1771681,Spanish Wells,Spanish Wells,Spanish Wells|Spanish Wells|Spanish Wells,BS,25.545834,-76.76111,3571375,3776669
Q1771681,Spanish Wells,Spanish Wells,Spanish Wells|Spanish Wells|Spanish Wells,BS,25.545834,-76.76111,8030558,3776669
Q20934,Incheon,Incheon,Incheon|Incheon|Incheon|仁川廣域市,KR,37.46389,126.64861,1843561,2297419
Q207413,Tacna,Department of Tacna,塔克纳大区|Tacna|Tacna|Tacna,PE,-17.6,-70.2,3928127,1874307
Q207424,Ucayali,Department of Ucayali,Ucayali|Ucayali|Ucayali|乌卡亚利大区,PE,-9.96,-73.19,3691099,1921996
Q207635,Benishangul-Gumuz Region,Benishangul-Gumuz Region,本尚古勒-古馬茲州|Benishangul-Gumuz|Benishangul-Gumaz|Benishangul-Gumuz,ET,10.639014,35.733032,444181,1707653
Q207638,Gambela Region,Gambela Region,甘貝拉州|Gambela|Gambela|Gambela,ET,7.6184416,34.68933,444183,1707655
Q852089,Kep Province,Kep Province,Kep|Ciudad de Kep|Kep|白馬市,KH,10.4833,104.3,1830937,2200024
Q852089,Kep Province,Kep Province,Kep|Ciudad de Kep|Kep|白馬市,KH,10.5125,104.31667,1830937,2200024
Q853152,Eastern Province,"Eastern Province, Rwanda",东部省|Est|Provincia del Este|Ostprovinz,RW,-1.75,30.5,6413337,
Q853162,Southern Province,"Southern Province, Rwanda",Sud|南部省|Provincia Sur|Südprovinz,RW,-2.6219444,29.608055,6413341,
Q853272,Sabaragamuwa Province,Sabaragamuwa Province,薩伯勒格穆沃省|Sabaragamuwa|Sabaragamuwa|Sabaragamuwa,LK,6.6666665,80.4,1228435,
Q853405,Centre-Sud Region,Centre-Sud Region,中南大區|Centre-Sud|Región Centro-Sur|Centre-Sud,BF,11.5,-1.1666666,6930708,2746024
Q1309042,Upper Demerara-Berbice,Upper Demerara-Berbice,上德梅拉拉-伯比斯區|Haut-Demerara-Berbice|Alto Demerara-Berbice|Upper Demerara-Berbice,GY,5.269128,-58.26707,3375469,7109155
Q1318806,Kamwenge District,Kamwenge District,卡姆文蓋區|Kamwenge|Distrito de Kamwenge|Kamwenge-Distrikt,UG,0.16666667,30.416666,448216,
Q1318815,Kyenjojo District,Kyenjojo District,Kyenjojo|Distrito de Kyenjojo|Kyenjojo-Distrikt|基恩喬喬區,UG,0.5,30.833334,448219,
Q1318822,Amolatar District,Amolatar District,阿莫拉塔爾區|Amolatar|Distrito de Amolatar|Distrikt Amolatar,UG,1.6333333,32.833332,7056275,
Q1318833,Oyam District,Oyam District,奧揚區|Distrito de Oyam|Oyam-Distrikt|Oyam,UG,2.3833334,32.5,7056295,
Q1318843,Kotido District,Kotido District,科蒂多區|Kotido|Distrito de Kotido|Kotido-Distrikt,UG,3.0166667,34.0,443347,
Q1318857,Koboko District,Koboko District,科博科區|Distrito de Koboko|Distrikt Koboko|Koboko,UG,3.4166667,30.966667,7056289,
Q1318865,Kiruhura District,Kiruhura District,基魯胡拉區|Distrito de Kiruhura|Distrikt Kiruhura|Kiruhura,UG,-0.21666667,30.833334,7056288,
Q1318872,Dokolo District,Dokolo District,Distrito de Dokolo|Bezirk Dokolo|Dokolo|多科洛區,UG,1.95,33.116665,7056283,
Q1318877,Ibanda District,Ibanda District,伊班達區|Distrito de Ibanda|Distrikt Ibanda|Ibanda,UG,-0.1,30.466667,7056284,
Q1676934,Anse la Raye Quarter,Anse la Raye Quarter,昂斯拉雷區|District d'Anse-la-Raye|Distrito de Anse La Raye|Anse-la-Raye,LC,13.9163885,-61.016388,3576891,9304002
Q1689560,Daraa Governorate,Daraa Governorate,德拉省|Gouvernorat de Deraa|Gobernación de Dar'a|Gouvernement Dar'a,SY,32.86,36.21,170903,
Q1689560,Daraa Governorate,Daraa Governorate,德拉省|Gouvernorat de Deraa|Gobernación de Dar'a|Gouvernement Dar'a,SY,32.15,36.033333,170903,
Q1725609,Saint Peter Basseterre Parish,Saint Peter Basseterre Parish,聖彼得巴塞特萊區|Saint-Peter Basseterre|Parroquia de Saint Peter Basseterre|Saint Peter Basseterre,KN,17.336945,-62.72889,3575168,9280616
Q1752101,Saint Thomas Middle Island Parish,Saint Thomas Middle Island Parish,聖托馬斯米德艾蘭區|Saint-Thomas Middle Island|Parroquia de Saint Thomas Middle Island|Saint Thomas Middle Island,KN,17.355278,-62.805832,3575164,9280613
Q20937,Gyeonggi Province,Gyeonggi Province,Gyeonggi|Gyeonggi|Gyeonggi-do|京畿道,KR,37.5,127.25,1841610,2306392
Q21203,Aruba,Aruba,Aruba|阿魯巴|Aruba|Aruba,NL,12.511063,-69.97422,3577279,1231749
Q1869075,Viļaka Municipality,Viļaka Municipality,Bezirk Viļaka|Viļaka|維利亞卡市鎮|Municipalidad de Viļaka,LV,57.1667,27.6667,7628348,
Q1892063,Amata Municipality,Amata Municipality,Amata|Municipalidad de Amata|Bezirk Amata|阿馬塔市鎮,LV,57.2,25.15,7628375,
Q21208,Hebei,Hebei,河北省|Hebei|Hebei|Hebei,CN,38.04222,114.50861,1808773,912998
Q20921,Daejeon,Daejeon,大田廣域市|Daejeon|Daejeon|Daejeon,KR,36.351,127.385,1835224,2349984
Q20927,Daegu,Daegu,大邱|Daegu|Daegu|Daegu,KR,35.866665,128.6,1835327,2395674
Q20929,Sejong City,Sejong City,世宗特別自治市|Sejong|Sejong|Sejong,KR,36.487003,127.282234,8394437,2349795
Q207795,Dornod Province,Dornod Province,Dornod|Dornod|Dornod-Aimag|东方省,MN,48.066666,114.5,2031799,
Q207809,Arkhangai Province,Arkhangai Province,后杭爱省|Arkhangai|Arhangay|Archangai-Aimag,MN,47.383335,101.5,2032855,
Q207973,Junín,Department of Junín,胡宁大区|Junín|Junín|Junín,PE,-11.48,-74.98,3937485,1948258
Q208182,Moquegua,Department of Moquegua,莫克瓜大区|Moquegua|Moquegua|Moquegua,PE,-16.8,-70.8,3934607,1875889
Q853460,Savanes Region,Savanes Region (Ivory Coast),萨瓦纳区|Savanes|Savanes|Savanes,CI,9.5,-5.5,2597320,
Q853664,Morobe Province,Morobe Province,莫雷贝省|Morobe|Morobe|Morobe Province,PG,-6.8333335,146.66667,2090468,
Q853991,Oio Region,Oio Region,奧約區|Oio|Región de Oio|Region Oio,GW,12.25,-15.25,2371071,1761584
Q854871,Mafraq Governorate,Mafraq Governorate,馬弗拉克省|Gobernación de Mafraq|Gouvernement Mafraq|Mafraq,JO,32.266666,36.155556,250583,
Q855327,Kouilou Department,Kouilou Department,Kouilou|Kouilou|Kouilou|奎盧省,CG,-0.8666667,14.8167,2258738,
Q856010,Wellington Region,Wellington Region,Región de Wellington|Wellington|Wellington|惠灵顿大区,NZ,-41.283333,174.76666,2179538,1638991
Q1318887,Isingiro District,Isingiro District,伊辛吉羅區|Isingiro|Distrito de Isingiro|Isingiro-Distrikt,UG,-0.8333333,30.833334,7056285,
Q1323353,La Altagracia Province,La Altagracia Province,La Altagracia|La Altagracia|La Altagracia|聖母省,DO,18.62,-68.71,3503706,3422240
Q1331932,Peravia Province,Peravia Province,佩拉維亞省|Peravia|Peravia|Peravia,DO,18.29,-70.33,3495015,3421246
Q1342139,Saint James Windward Parish,Saint James Windward Parish,聖詹姆斯溫沃德區|Saint-James Windward|Parroquia de Saint James Windward|Saint James Windward,KN,17.175,-62.565556,3575177,9280620
Q1772745,Monte Plata Province,Monte Plata Province,Monte Plata|Monte Plata|銀山省|Monte Plata,DO,18.81,-69.79,3496132,3420529
Q1772983,Santiago Province,Santiago Province (Dominican Republic),聖地牙哥省|Santiago|Santiago|Santiago,DO,19.48,-70.69,3492918,3412920
Q1774831,El Seibo Province,El Seibo Province,賽堡省|El Seibo|El Seibo|El Seibo,DO,18.77,-69.04,3506189,3422238
Q1774848,Valverde Province,Valverde Province,Valverde|Valverde|Valverde|巴韋德省,DO,19.566668,-71.083336,3492112,3412369
Q1808165,Port Glaud,Port Glaud,波特格勞德區|Port Glaud|Port Glaud|Port Glaud,SC,-4.65,55.4,241215,
Q1811116,Gnaviyani Atoll,Gnaviyani Atoll,加納維雅尼環礁|Atoll de Gnaviyani|Atolón Gnaviyani|Gnaviyani,MV,-0.3,73.433334,1281945,
Q1816580,Bujumbura Mairie Province,Bujumbura Mairie Province,Bujumbura Mairie|Provincia de Buyumbura Mairie|Bujumbura Mairie,BI,-3.3788888,29.360834,7303939,
Q1819963,La Rivière Anglaise,"English River, Seychelles",英吉利河|La Rivière Anglaise|La Riviere Anglaise|La Rivière Anglaise,SC,-4.5833335,55.45,241302,
Q208183,Piura,Department of Piura,皮乌拉地区|Piura|Piura|Piura,PE,-4.99,-80.41,3693525,1986151
Q208185,Apurímac,Department of Apurímac,阿普里马克大区|Apurímac|Apurimac|Apurímac,PE,-14.166667,-72.755554,3947421,1929522
Q208186,Ica,Department of Ica,Ica|伊卡大区|Ica|Ica,PE,-14.07,-75.73,3938526,1899013
Q208270,Federally Administered Tribal Areas,Federally Administered Tribal Areas,联邦直辖部落地区|régions tribales|Áreas tribales|Stammesgebiete unter Bundesverwaltung,PK,33.0,70.166664,1179245,358004
Q856227,Nana-Grébizi Economic Prefecture,Nana-Grébizi,Nana-Grébizi|Nana-Grébizi|Nana-Grébizi|纳纳-格里比齐省,CF,7.0833335,19.25,2386243,
Q856237,Sangha-Mbaéré,Sangha-Mbaéré,桑加-姆巴埃雷省|Sangha-Mbaéré|Sangha-Mbaéré|Sangha-Mbaéré,CF,3.5,16.083334,2383204,
Q856261,Diourbel Region,Diourbel Region,久尔贝勒区|Diourbel|Diourbel|Region Diourbel,SN,14.75,-16.25,2252308,
Q856268,Dakar,Dakar Region,Dakar|Region Dakar|Dakar|达喀尔区,SN,14.75,-17.333334,2253350,
Q856275,Matam,Matam Region,馬塔姆區|Matam|Region Matam|Matam,SN,15.1,-13.633333,2248753,
Q856282,Fatick,Fatick Region,法蒂克区|Region Fatick|Fatick|Fatick,SN,14.366667,-16.133333,2251910,
Q856539,Central Governorate,"Central Governorate, Bahrain",Gouvernorat central|Central|中央省,BH,26.183332,50.516666,7090973,
Q1345325,Ventspils Municipality,Ventspils Municipality,Municipalidad de Ventspils|Bezirk Ventspils|Ventspils|文茨皮爾斯市鎮,LV,57.316666,21.633333,454307,
Q1352533,Pedernales Province,Pedernales Province,Pedernales|Pedernales|Pedernales|佩德納萊斯省,DO,18.033333,-71.75,3495136,3421242
Q1352536,Santo Domingo Province,Santo Domingo Province,聖多明哥省|Provincia Santo Domingo|Santo Domingo|Santo Domingo,DO,18.483402,-69.92961,6201373,3422565
Q1353668,Inagua,Inagua,Inagua|Inagua|Inagua|伊納瓜,BS,21.07681,-73.28705,3572154,3775740
Q1355642,Ribeira Grande,"Ribeira Grande, Cape Verde (municipality)",大里貝拉縣|Ribeira Grande|Ribeira Grande|Ribeira Grande,CV,17.183332,-25.066668,3374274,4019981
Q1362085,Budaka District,Budaka District,布達卡區|Budaka|Distrito de Budaka|Distrikt Budaka,UG,1.0333333,33.95,7056279,
Q1362109,Mpigi District,Mpigi District,Distrito de Mpigi|Mpigi-Distrikt|Mpigi|姆皮吉區,UG,0.083333336,32.0,233709,
Q1362129,Bundibugyo District,Bundibugyo District,本迪布焦區|Bundibugyo|Distrito de Bundibugyo|Bundibugyo-Distrikt,UG,0.8333333,30.25,443329,
Q1362587,Yumbe District,Yumbe District,永貝區|Distrito de Yumbe|Yumbe-Distrikt|Yumbe,UG,3.5,31.25,448225,
Q1831695,Krāslava Municipality,Krāslava Municipality,克拉斯拉瓦市镇|Municipalidad de Krāslava|Bezirk Krāslava|Krāslava,LV,55.9,27.166666,458621,1811627
Q1836903,Sánchez Ramírez Province,Sánchez Ramírez Province,桑切斯·拉米斯省|Sánchez Ramírez|Sánchez Ramírez|Sánchez Ramírez,DO,19.06,-70.15,3493192,3420666
Q1837354,Rugāji Municipality,Rugāji Municipality,Rugāji|Municipalidad de Rugāji|Bezirk Rugāji,LV,57.00083,27.129723,7628352,
Q1859950,Rum Cay,Rum Cay,拉姆岛|Cayo Rum|Rum Cay|Rum Cay,BS,23.682222,-74.86889,3571561,3776665
Q1864637,Saint Patrick Parish,"Saint Patrick Parish, Saint Vincent and the Grenadines",聖派屈克區|Saint Patrick Parish|Saint-Patrick|San Patricio,VC,13.233056,-61.266945,3577818,4016644
Q209187,Gulbene Municipality,Gulbene Municipality,古爾貝內市鎮|Gulbene|Municipalidad de Gulbene|Bezirk Gulbene,LV,57.181946,26.76389,459664,1797394
Q209393,Ghat,"Ghat, Libya",加特|Ghat|Ghat|Ghat,LY,24.95,10.316667,2217351,
Q209597,Tumbes,Department of Tumbes,Tumbes|Tumbes|Tumbes|通贝斯大区,PE,-3.88,-80.59,3691146,1986974
Q209774,Bulgan Province,Bulgan Province,Bulgan-Aimag|Bulgan|Bulgan|布尔干省,MN,48.8,103.55,2032199,
Q209778,Murqub,Murqub District,迈尔盖卜省|Al Mourqoub|Al Murgub|Munizip al-Murgub,LY,32.65,14.266666,7602691,
Q856686,Western Province,"Western Province, Sri Lanka",Provincia Oeste|Westprovinz|Province de l'Ouest|西部省,LK,6.8333335,80.083336,1223421,
Q856719,Gedo,Gedo,蓋多州|Gedo|Gedo|Gedo,SO,2.4380555,41.484165,58802,
Q856781,Yangon Region,Yangon Region,仰光省|Région de Yangon|Región de Yangon|Yangon-Region,MM,17.0,96.166664,1298822,5996487
Q856788,Prey Veng Province,Prey Veng Province,波萝勉省|Prey Veng|Provincia de Prey Veng|Prey Veng,KH,11.483334,105.333336,1822609,2200477
Q857122,South Region,South Region (Cameroon),Région du Sud|Región del Sur|Sud|南部区,CM,2.9194446,11.151667,2221789,
Q1364817,Luwero District,Luweero District,Distrito de Luwero|Distrikt Luweero|盧韋羅區|Luweero,UG,0.8,32.6,443350,
Q1364824,Mayuge District,Mayuge District,Mayuge|Distrito de Mayuge|Mayuge-Distrikt|馬尤蓋區,UG,-0.25,33.583332,448220,
Q1365449,Bududa District,Bududa District,布杜達區|Distrito de Bududa|Bududa-Distrikt|Bududa,UG,1.05,34.4,7056280,
Q1366107,San Cristóbal Province,San Cristóbal Province,聖克里斯多堡省|San Cristóbal|San Cristóbal|San Cristóbal,DO,18.42,-70.11,3493186,3422564
Q1366119,San Pedro de Macorís,San Pedro de Macorís Province,聖彼德省|San Pedro de Macorís|San Pedro de Macorís|San Pedro de Macorís,DO,18.46,-69.31,3493031,3422259
Q1367759,Isfahan Province,Isfahan Province,伊斯法罕省|Ispahan|Isfahán|Isfahan,IR,32.6577,51.6692,418862,241475
Q1895853,Tarrafal de São Nicolau,Tarrafal de São Nicolau (municipality),聖尼古勞塔拉法爾縣|Tarrafal de São Nicolau|Tarrafal de São Nicolau|Tarrafal de São Nicolau,CV,16.565989,-24.356833,7602872,4019943
Q1899163,Tunapuna-Piarco Regional Corporation,Tunapuna–Piarco,图纳普纳-皮亚尔科区|Tunapuna-Piarco|Tunapuna-Piarco|Tunapuna-Piarco,TT,10.633333,-61.38333,7521947,7363639
Q1920815,Vecpiebalga Municipality,Vecpiebalga Municipality,舊皮耶巴爾加市鎮|Municipalidad de Vecpiebalga|Bezirk Vecpiebalga|Vecpiebalga,LV,57.0619,25.8108,7628383,
Q1928685,Cascade,"Cascade, Seychelles",Cascade|Cascade|Cascade|卡斯喀得區,SC,-4.6666665,55.483334,241396,
Q1934932,Auce Municipality,Auce Municipality,奧采市鎮|Municipalidad de Auce|Bezirk Auce|Auce,LV,56.5,22.95,7628312,
Q1942469,Pāvilosta Municipality,Pāvilosta Municipality,Pāvilosta|帕維洛斯塔市鎮|Municipalidad de Pāvilosta|Bezirk Pāvilosta,LV,56.883335,21.166666,7628300,1781258
Q1945263,Valka Municipality,Valka Municipality,瓦爾卡市鎮|Valka|Municipalidad de Valka|Bezirk Valka,LV,57.767776,25.946945,454571,
Q1945413,Mont Fleuri,Mont Fleuri,蒙弗勒利區|Mont Fleuri|Mont Fleuri|Mont Fleuri,SC,-4.633333,55.45,241251,
Q1949656,María Trinidad Sánchez Province,María Trinidad Sánchez Province,瑪麗亞·桑其斯省|María Trinidad Sánchez|María Trinidad Sánchez|María Trinidad Sánchez,DO,19.38,-69.85,3496772,3422241
Q22048,Odisha,Odisha,Orissa|Odisha|Odisha|奥里萨邦,IN,20.15,85.5,1261029,1984022
Q1962356,Durbe Municipality,Durbe Municipality,杜爾貝市鎮|Municipalidad de Durbe|Bezirk Durbe|Durbe,LV,56.616665,21.366667,7628304,1781245
Q1989164,Cēsis Municipality,Cēsis Municipality,Municipalidad de Cēsis|Bezirk Cēsis|Cēsis|采西斯市镇,LV,57.266666,25.383333,460569,
Q1995769,Alsunga Municipality,Alsunga Municipality,阿爾松加市鎮|Municipalidad de Alsunga|Bezirk Alsunga|Alsunga,LV,56.981667,21.566944,7628299,1781238
Q1995856,Nelson Region,Nelson Region,Nelson|Nelson,NZ,-41.27089,173.28401,6612108,4266962
Q23430,Ulaanbaatar,Ulaanbaatar,Ulaanbaatar|乌兰巴托|Oulan-Bator|Ulán Bator,MN,47.921356,106.90552,2028462,
Q210061,Lambayeque,Department of Lambayeque,兰巴耶克大区|Lambayeque|Lambayeque|Lambayeque,PE,-6.4333334,-79.86667,3695753,1969722
Q210527,Aveiro,Aveiro District,阿威羅區|Aveiro|Aveiro|Distrikt Aveiro,PT,40.64111,-8.653889,2742610,3920249
Q210896,Madre de Dios,Department of Madre de Dios,Madre de Dios|Madre de Dios|Madre de Dios|马德雷德迪奥斯大区,PE,-11.99,-70.59,3935619,1891287
Q211208,Pasco,Department of Pasco,帕斯科大区|Pasco|Pasco|Pasco,PE,-10.5,-75.3,3932834,1948452
Q211793,San Martín,Department of San Martín,圣马丁大区|Region San Martín|San Martín|San Martín,PE,-7.2,-76.8,3692385,1971661
Q858513,New Providence,New Providence,新普罗维登斯岛|Nueva Providencia|New Providence|New Providence,BS,25.031944,-77.40417,3571814,7160727
Q859567,Tiris Zemmour Region,Tiris Zemmour Region,Tiris Zemmour|提里斯-宰穆爾省|Tiris Zemmour|Tiris Zemmur,MR,24.0,-9.0,2375989,
Q859573,Dakhlet Nouadhibou,Dakhlet Nouadhibou Region,努瓦迪布灣省|Dajlet Nuadibú|Dakhlet Nouadhibou|Dakhlet Nouadhibou,MR,20.95,-16.233334,2380426,
Q859581,Trarza Region,Trarza Region,特拉扎省|Trarza|Trarza|Trarza,MR,17.983334,-14.733334,2375742,
Q859831,Gorgol Region,Gorgol Region,Gorgol|Gorgol|Gorgol|戈爾戈勒省,MR,16.05,-12.816667,2379384,
Q860630,Manatuto District,Manatuto Municipality,Manatuto|Manatuto|Manatuto|馬納圖托縣,TL,-8.7,125.916664,1636525,
Q1368802,Essequibo Islands-West Demerara,Essequibo Islands-West Demerara,埃塞奎博群島-西德梅拉拉區|Îles d'Essequibo-Demerara Occidental|Islas Esequibo-Demerara Occidental|Essequibo Islands-West Demerara,GY,6.7150555,-58.54902,3378741,7105894
Q1375755,Butaleja District,Butaleja District,布塔萊賈區|Butaleja|Distrito de Butaleja|Butaleja-Distrikt,UG,0.8833333,33.95,7056282,
Q1375762,Amuria District,Amuria District,阿穆里亞區|Distrito de Amuria|Amuria-Distrikt|Amuria,UG,2.0833333,33.666668,7056276,
Q1375771,Amuru District,Amuru District,阿穆魯區|Amuru|Distrito de Amuru|Amuru-Distrikt,UG,2.6666667,31.833334,7056278,
Q1375780,Abim District,Abim District,阿比姆區|Abim|Distrito de Abim|Abim-Distrikt,UG,2.7016666,33.67611,7056273,
Q1375789,Manafwa District,Manafwa District,馬納富阿區|Distrito de Manafwa|Manafwa-Distrikt|Manafwa,UG,0.9,34.333332,7056291,
Q1375812,Bukedea District,Bukedea District,布凱德阿區|Distrito de Bukedea|Bukedea-Distrikt|Bukedea,UG,1.3666667,34.133335,234411,
Q1375819,Namutumba District,Namutumba District,Distrito de Busiki|Distrikt Namutumba|Namutumba|納穆通巴區,UG,0.8333333,33.666668,234069,
Q1375825,Nebbi District,Nebbi District,內比區|Nebbi|Distrito de Nebbi|Nebbi-Distrikt,UG,2.4166667,31.166666,443360,
Q1375835,Sironko District,Sironko District,錫龍科區|Sironko|Distrito de Sironko|Sironko-Distrikt,UG,1.25,34.316666,448223,
Q1950456,Nīca Municipality,Nīca Municipality,尼察市鎮|Nīcas novads|Municipalidad de Nīca|Bezirk Nīca,LV,56.34611,21.062222,7628301,1781255
Q1952603,Saint Peter Parish,"Saint Peter Parish, Antigua and Barbuda",聖彼得區|Parroquia de Saint Peter|Saint-Peter|Saint Peter,AG,17.1,-61.766666,3576016,9604794
Q1955102,Cibla Municipality,Cibla Municipality,齊布拉市鎮|Municipalidad de Cibla|Bezirk Cibla|Cibla,LV,56.55,27.883333,7628346,
Q1959984,Smiltene Municipality,Smiltene Municipality,Municipalidad de Smiltene|Bezirk Smiltene|斯米爾泰內市鎮|Smiltene,LV,57.433334,25.9,7628380,1806957
Q2012057,Montana Province,Montana Province,蒙塔納州|Provincia de Montana|Oblast Montana|Montana,BG,43.6,23.183332,453753,1739532
Q22424,Punjab,"Punjab, India",旁遮普邦|Pendjab|Panyab|Punjab,IN,30.766666,75.46667,1259223,1942686
Q23408,Bouvet Island,Bouvet Island,布韦岛|île Bouvet|Isla Bouvet|Bouvetinsel,NO,-54.42222,3.35833,3371123,
Q23408,Bouvet Island,Bouvet Island,布韦岛|île Bouvet|Isla Bouvet|Bouvetinsel,NO,-54.42222,3.35833,3371122,
Q211795,Lima region,Department of Lima,Lima|Lima|利馬大區|Departamento de Lima,PE,-12.043333,-77.028336,3936452,1944659
Q211835,Dundgovi Province,DundGobi Province,中戈壁省|Dundgovi|Dundgovi|Dund-Gobi-Aimag,MN,45.766666,106.28333,2031740,
Q211900,Napo Province,Napo Province,纳波省|Napo|Napo|Provinz Napo,EC,-0.67,-77.94,3653890,114276
Q212540,Sonsonate Department,Sonsonate Department,松索纳特省|Departamento Sonsonate|Sonsonate|Sonsonate,SV,13.703,-89.693,3583101,3624092
Q860639,Oe-Cusse Ambeno,Oecusse,歐庫西-安貝諾縣|Oe-Cusse Ambeno|Oecussi-Ambeno|Oe-Cusse Ambeno,TL,-9.21667,124.367,1651539,
Q860758,Central Region,"Central Region, Malawi",Malawi central|Región Central|Central Region|中央区,MW,-13.23995,34.03564,931597,
Q860758,Central Region,"Central Region, Malawi",Malawi central|Región Central|Central Region|中央区,MW,-13.624444,33.53,931597,
Q860813,Wadi Fira Region,Wadi Fira (region),Wadi Fira|Región de Wadi Fira|Region Wadi Fira|瓦迪菲拉區,TD,14.5275,20.926666,244877,
Q860897,Liquiçá Municipality,Liquiçá Municipality,利逵薩縣|Liquiçá|Liquiçá|Liquiçá,TL,-8.683333,125.2,1637729,
Q860901,Dili municipality,Dili Municipality,Gemeinde Dili|Dili|Dili|帝力縣,TL,-8.566667,125.583336,1645456,
Q860913,Bobonaro Municipality,Bobonaro Municipality,博博納羅縣|Bobonaro|Bobonaro|Bobonaro,TL,-8.916667,125.25,1648513,
Q861914,Tillabéri Region,Tillabéri Region,Región de Tillabéri|Tillabéri|Tillabéri|蒂拉贝里大区,NE,14.216666,1.45,2595293,
Q1375843,Pallisa District,Pallisa District,帕利薩區|Pallisa|Distrito de Pallisa|Pallisa-Distrikt,UG,1.1666666,33.833332,443362,
Q1375850,Moroto District,Moroto District,莫羅托區|Distrito de Moroto|Moroto-Distrikt|Moroto,UG,2.5,34.25,443356,
Q1375853,Nakapiripirit District,Nakapiripirit District,納卡皮里皮里特區|Nakapiripirit|Distrito de Nakapiripirit|Nakapiripirit-Distrikt,UG,1.9166666,34.666668,448221,
Q1375859,Kaliro District,Kaliro District,卡利羅區|Kaliro|Distrito de Kaliro|Kaliro-Distrikt,UG,1.0166667,33.5,7056287,
Q1375868,Bukwo District,Bukwo District,布克瓦區|Distrito de Bukwo|Bukwo-Distrikt|Bukwa,UG,1.2666667,34.733334,7056296,
Q1996432,Laamu Atoll,Laamu Atoll,拉穆環礁|Atoll Hadhdhunmathi|Atolón Laamu|Laamu,MV,1.9333333,73.416664,1282101,
Q1996895,Saint Philip Parish,"Saint Philip Parish, Antigua and Barbuda",Saint-Philip|Parroquia de Saint Philip|聖菲利普區|Saint Philip,AG,17.083334,-61.7,3576015,9604456
Q1999872,Saint Mary Parish,"Saint Mary Parish, Antigua and Barbuda",Saint Mary|Saint-Mary|Parroquia de Saint Mary|聖瑪麗區,AG,17.033333,-61.883335,3576018,9604457
Q2001793,San Juan Province,San Juan Province (Dominican Republic),聖胡安省|Provincia de San Juan|San Juan|San Juan,DO,18.81,-71.23,3493091,3420316
Q2007044,Damascus Governorate,Damascus Governorate,大馬士革省 (敘利亞)|Damas|Gobernación de Damasco|Gouvernement Damaskus,SY,33.513,36.292,167541,
Q23438,Ashgabat,Ashgabat,阿什哈巴德|Achgabat|Asjabad|Aşgabat,TM,37.95,58.383335,162183,7328329
Q212761,Al Muthanna Governorate,Muthanna Governorate,Gobernación de Mutana|al-Muthanna|Al-Muthanna|穆薩納省,IQ,30.2,45.35,99032,
Q212786,Benguela Province,Benguela Province,Benguela|Provinz Benguela|本吉拉省|Benguela,AO,-12.666667,14.016666,3351660,
Q213170,Maysan Governorate,Maysan Governorate,米桑省|Maysan|Gobernación de Mesena|Maisan,IQ,31.9,47.033333,93540,
Q213182,Sulaymaniyah Governorate,Sulaymaniyah Governorate,蘇萊曼尼亞省|Gobernación de Solimania|as-Sulaimaniyya|As-Sulaymaniya,IQ,35.516666,45.316666,98465,
Q862584,Enga Province,Enga Province,Enga|恩加省|Enga Province|Enga,PG,-5.4166665,143.5,2097655,
Q862606,Plateau-Central Region,Plateau-Central Region,高原-中部大區|Plateau-Central|Región Plateau-Central|Plateau Central,BF,12.416667,-1.0,6930712,2746035
Q862608,Montserrado County,Montserrado County,Montserrado|Condado de Montserrado|Montserrado County|蒙特塞拉多县,LR,6.5,-10.5,2274890,3320955
Q862611,Boké Region,Boké Region,博凱大區|Boké|Region Boké|Boké,GN,11.25,-14.25,8335085,
Q862617,Quinara Region,Quinara Region,基納拉區|Quinara|Región de Quinara|Region Quinara,GW,11.666667,-15.166667,2370360,1761585
Q862753,Lékoumou Department,Lékoumou Department,Lékoumou|Lékoumou|Lékoumou|萊庫穆省,CG,-0.8666667,14.8167,2258534,
Q1375878,Lyantonde District,Lyantonde District,利安通德區|Distrito de Lyantonde|Lyantonde-Distrikt|Lyantonde,UG,-0.16666667,31.166666,7056290,
Q1378310,National Capital District,National Capital District (Papua New Guinea),國家首都區|District de la capitale nationale|Distrito Capital Nacional|National Capital District,PG,-9.41667,147.16667,2089856,
Q1378310,National Capital District,National Capital District (Papua New Guinea),National Capital District|國家首都區|District de la capitale nationale|Distrito Capital Nacional,PG,-9.416667,147.28334,2089856,
Q1382499,Hela Province,Hela Province,Hela Province|赫拉省|Hela|Hela,PG,-6.0,142.83333,8521658,
Q1385577,Exuma,Exuma,埃克蘇馬|Îles Exumas|Exuma|Exuma,BS,23.716667,-76.083336,3572427,3776652
Q2012227,Pazardzhik Province,Pazardzhik Province,Oblast Pasardschik|Pazardjik|Pazardzhik|帕扎爾吉克州,BG,42.083332,24.25,728379,1739533
Q2012234,Pernik Province,Pernik Province,Pernik|Pernik|Oblast Pernik|佩爾尼克州,BG,42.583332,23.0,728331,1739534
Q2012242,Pleven Province,Pleven Province,普列文州|Oblast Plewen|Pleven|Pleven,BG,43.416668,24.666666,728204,1739535
Q2012423,Silistra Province,Silistra Province,錫利斯特拉州|Silistra|Silistra|Oblast Silistra,BG,43.916668,27.166666,864556,1739539
Q2012430,Smolyan Province,Smolyan Province,Provincia de Smolyan|Oblast Smoljan|Smolyan|斯莫梁州,BG,41.666668,24.583334,864558,1739541
Q24282,Sant Julià de Lòria,Sant Julià de Lòria,圣胡利娅-德洛里亚|Sant Julià de Lòria|Sant Julià de Lòria|San Julián de Loria,AD,42.47,1.49,3039162,2804759
Q23533,Quảng Bình,Quảng Bình Province,Quảng Bình|Quảng Bình|廣平省|Quảng Bình,VN,17.5,106.333336,1568839,
Q24260,Canillo,Canillo,卡尼略|Canillo|Canillo|Canillo,AD,42.56638,1.60094,3041203,2804754
Q213189,Erbil Governorate,Erbil Governorate,埃爾比勒省|Gobernación de Erbil|Arbil|Erbil,IQ,36.183334,44.033333,95445,2969761
Q213268,Dodoma Region,Dodoma Region,多多馬區|Región de Dodoma|Dodoma|Dodoma,TZ,-6.165,35.5625,160192,
Q213272,Dornogovi Province,Dornogovi Province,东戈壁省|Dornogovi|Dornogovi|Dorno-Gobi-Aimag,MN,44.883335,110.15,2031798,
Q213467,Perlis,Perlis,玻璃市|Perlis|Perlis|Perlis,MY,6.5,100.25,1733040,4444918
Q863476,Bimini,Bimini,比米尼群島|Îles Bimini|Bimini|Bimini,BS,25.733334,-79.25,3572807,3776645
Q863476,Bimini,Bimini,比米尼群島|Îles Bimini|Bimini|Bimini,BS,25.733334,-79.25,3572806,3776645
Q863554,Likouala Department,Likouala Department,利夸拉省|Likouala|Likouala|Likouala,CG,1.6333333,18.066668,2258431,
Q864093,North Kordofan,North Kordofan,北科尔多凡省|Kordofan du Nord|Kordofán del Norte|Schamal Kurdufan,SD,14.366667,29.533333,408667,
Q864647,Pool Department,Pool Department,Departamento de Pool|Pool|Pool|普爾省,CG,-4.3613887,14.764444,2255404,
Q864971,Southland Region,"Southland, New Zealand",南地大区|Southland (Region)|Southland|Southland,NZ,-45.7,168.1,2182501,
Q1390048,Lhaviyani Atoll,Lhaviyani Atoll,拉黑比亞尼環礁|Atoll Faadhippolhu|Atolón Lhaviyani|Faadhippolhu-Atoll,MV,5.383333,73.48333,1282096,
Q1400625,Jiwaka Province,Jiwaka Province,吉瓦卡省|Jiwaka Province|Jiwaka|Jiwaka Province,PG,-6.0,144.58333,8521660,
Q1424391,San José de Ocoa Province,San José de Ocoa Province,San José de Ocoa|San José de Ocoa|San José de Ocoa|聖荷西省,DO,18.55,-70.5,3493101,3421243
Q1424401,Independencia,Independencia Province,獨立省|Independencia|Independencia|Independencia,DO,18.49,-71.85,3504326,3420665
Q1431099,Saint Luke Parish,"Saint Luke Parish, Dominica",聖盧克區|Saint-Luke|Parroquia de Saint Luke|Saint Luke,DM,15.25,-61.383335,3575622,2306401
Q1431108,Saint Patrick Parish,"Saint Patrick Parish, Dominica",聖帕特里克堂區|Saint-Patrick|Parroquia de Saint Patrick|Saint Patrick,DM,15.416667,-61.333332,3575620,2304770
Q1431115,Saint Mark Parish,"Saint Mark Parish, Dominica",聖馬克堂區|Saint-Mark|Parroquia de Saint Mark|Saint Mark,DM,15.232223,-61.359722,3575621,2306400
Q1431129,Saint David Parish,"Saint David Parish, Dominica",聖戴維堂區|Saint-David|Parroquia de Saint David|Saint David,DM,15.366667,-61.266666,3575630,2314472
Q1434621,Ouest,Ouest (department),Ouest|Oeste|Ouest|西部省,HT,18.573,-72.24,3719432,386871
Q1434621,Ouest,Ouest (department),Ouest|Oeste|Ouest|西部省,HT,18.66381,-72.29141,3719432,386871
Q2012583,Stara Zagora Province,Stara Zagora Province,舊扎戈拉州|Oblast Stara Sagora|Stara Zagora|Stara Zagora,BG,42.416668,25.5,864559,1300657
Q2012589,Targovishte Province,Targovishte Province,特爾戈維什特州|Tărgovište|Oblast Targowischte|Targovichté,BG,43.25,26.5,864560,1739544
Q2012621,Veliko Tarnovo Province,Veliko Tarnovo Province,大特爾諾沃州|Oblast Weliko Tarnowo|Veliko Tarnovo|Veliko Tarnovo,BG,43.316666,25.55,864561,1739524
Q2018681,Viļāni Municipality,Viļāni Municipality,維利亞尼市鎮|Viļāni|Municipalidad de Viļāni|Bezirk Viļāni,LV,56.6667,26.9167,7628343,
Q24286,Escaldes-Engordany,Escaldes-Engordany,Escaldes-Engordany|Escaldes-Engordany|Escaldes-Engordany|萊塞斯卡爾德-恩戈爾達,AD,42.50889,1.540833,3338529,2804756
Q2072209,Ķegums Municipality,Ķegums Municipality,基耶古姆斯市镇|Municipalidad de Ķegums|Bezirk Ķegums|Ķegums,LV,56.733334,24.7,7628330,
Q2075188,Charlotte Parish,"Charlotte Parish, Saint Vincent and the Grenadines",夏洛特区|Carlota|Charlotte|Charlotte,VC,13.286111,-61.12278,3577934,4016640
Q2079353,Babīte Municipality,Babīte Municipality,巴比泰市鎮|Municipalidad de Babīte|Bezirk Babīte|Babīte,LV,56.95,23.95,461255,
Q2079353,Babīte Municipality,Babīte Municipality,巴比泰市鎮|Municipalidad de Babīte|Bezirk Babīte|Babīte,LV,56.88889,23.766111,461255,
Q2079353,Babīte Municipality,Babīte Municipality,巴比泰市鎮|Municipalidad de Babīte|Bezirk Babīte|Babīte,LV,56.95,23.95,7628318,
Q2079353,Babīte Municipality,Babīte Municipality,巴比泰市鎮|Municipalidad de Babīte|Bezirk Babīte|Babīte,LV,56.88889,23.766111,7628318,
Q24269,Encamp,Encamp,恩坎普|Encamp|Encamp|Encamp,AD,42.53611,1.582778,3040684,2804755
Q24272,Ordino,Ordino,奥尔迪诺|Ordino|Ordino|Ordino,AD,42.555,1.5330555,3039676,2804758
Q24276,La Massana,La Massana,马萨纳|La Massana|La Massana|La Massana,AD,42.544167,1.5163889,3040131,2804757
Q213893,Negeri Sembilan,Negeri Sembilan,森美兰|Negeri Sembilan|Negeri Sembilan|Negeri Sembilan,MY,2.75,102.25,1733043,2939674
Q213944,Annaba Province,Annaba Province,Wilaya d'Annaba|Provincia de Annaba|Annaba|安纳巴省,DZ,36.9,7.766667,2506994,
Q213950,Khenchela Province,Khenchela Province,汉舍莱省|Wilaya de Khenchela|Provincia de Khenchela|Khenchela,DZ,35.434,7.147,2491887,
Q865534,Sennar,Sennar (state),森纳尔省|Sannar|Sennar|Sannar,SD,12.94028,34.18944,408669,
Q865649,Pļaviņas Municipality,Pļaviņas Municipality,普利亞維尼亞斯市鎮|Pļaviņas|Municipalidad de Pļaviņas|Bezirk Pļaviņas,LV,56.6,25.716667,7628356,
Q865658,Aknīste Municipality,Aknīste Municipality,Municipalidad de Aknīste|Bezirk Aknīste|阿克尼斯泰市鎮|Commune d'Aknīste,LV,56.160557,25.798056,7628338,
Q865676,Aizkraukle Municipality,Aizkraukle Municipality,艾茲克勞克萊市鎮|Aizkraukles novads|Municipio de Aizkraukle|Bezirk Aizkraukle,LV,56.604168,25.25389,461613,1811620
Q865682,Koknese Municipality,Koknese Municipality,科克內塞市鎮|Municipalidad de Koknese|Bezirk Koknese|Koknese,LV,56.65,25.433332,7628357,
Q865717,Brocēni Municipality,Brocēni Municipality,布羅采尼市鎮|Municipalidad de Brocēni|Bezirk Brocēni|Brocēni,LV,56.733334,22.65,7628309,
Q866699,Sonsorol,Sonsorol,松索羅爾|Sonsorol|Sonsoral|Sonsorol,PW,5.3261113,132.22055,1559630,
Q866886,La Paz Department,La Paz Department (Honduras),拉巴斯省 (洪都拉斯)|La Paz|La Paz|La Paz,HN,14.333333,-87.683334,3607251,400473
Q866886,La Paz Department,La Paz Department (Honduras),拉巴斯省 (洪都拉斯)|La Paz|La Paz|La Paz,HN,14.333333,-87.683334,3607251,4627392
Q1444575,Chaguanas,Chaguanas,查瓜納斯|Chaguanas|Chaguanas|Chaguanas,TT,10.514444,-61.4075,3574809,7363641
Q1454035,Potaro-Siparuni,Potaro-Siparuni,波塔羅-錫帕魯尼區|Potaro-Siparuni|Potaro-Siparuni|Potaro-Siparuni,GY,4.769703,-59.265392,3376386,7108941
Q1457965,Raa Atoll,Raa Atoll,拉環礁|Raa|Atolón Raa|Raa,MV,5.633333,72.916664,1281918,
Q1466671,Mahaica-Berbice,Mahaica-Berbice,馬海卡-伯比斯區|Mahaica-Berbice|Mahaica-Berbice|Mahaica-Berbice,GY,6.229522,-57.886845,3377274,7108958
Q1468407,Kaafu Atoll,Kaafu Atoll,卡夫環礁|Kaafu|Atolón Kaafu|Kaafu,MV,4.4166665,73.5,1282208,
Q1468596,Ad Dhahirah Governorate,Ad Dhahirah Governorate,扎希拉省|Ad Dhahirah|Ad Dhahirah|Az-Zahirah,OM,23.23639,56.504444,411739,3781242
Q1472520,Saint George Gingerland Parish,Saint George Gingerland Parish,Saint-George Gingerland|Parroquia de Saint George Gingerland|Saint George Gingerland|圣乔治金杰兰区,KN,17.133333,-62.55,3575179,9280621
Q2012772,Vidin Province,Vidin Province,維丁州|Oblast Widin|Vidin|Vidin,BG,43.8,22.683332,864562,1739525
Q2012785,Vratsa Province,Vratsa Province,弗拉察州|Vratsa|Vratsa|Oblast Wraza,BG,43.516666,23.6,725713,1739526
Q2018672,Balvi Municipality,Balvi Municipality,巴爾維市鎮|Municipalidad de Balvi|Bezirk Balvi|Balvi,LV,57.133335,27.25,461160,
Q213977,Bié Province,Bié Province,比耶省|Provinz Bié|Bié|Bié,AO,-12.516666,17.566668,3351640,
Q214064,Aleppo Governorate,Aleppo Governorate,Alep|Gobernación de Alepo|Gouvernement Aleppo|阿勒颇省,SY,36.24,37.6,170062,
Q214094,Homs Governorate,Homs Governorate,霍姆斯省|Gouvernorat de Homs|Gobernación de Homs|Gouvernement Homs,SY,34.35,38.31,169575,
Q214104,Karbala Governorate,Karbala Governorate,卡爾巴拉省|Karbala|Gobernación de Kerbala|Karbala,IQ,32.45,43.8,94823,
Q214155,Mopti Region,Mopti Region,莫普提区|Región de Mopti|Region Mopti|Mopti,ML,14.498333,-3.1858332,2453347,
Q214221,Lunda Norte Province,Lunda Norte Province,北倫達省|Lunda-Nord|Lunda Norte|Provinz Lunda Norte,AO,-8.283334,19.6,145702,
Q867084,Ocotepeque Department,Ocotepeque Department,奥科特佩克省|Departamento Ocotepeque|Ocotepeque|Ocotepeque,HN,14.433333,-89.183334,3604318,4627394
Q867089,Olancho Department,Olancho Department,Olancho|Olancho|Departamento Olancho|奧蘭喬省,HN,14.6,-86.2,3604249,4627317
Q867097,Valle Department,Valle Department,山谷省|Departamento Valle|Valle|Valle,HN,13.533334,-87.48333,3600456,4627318
Q867108,El Paraíso Department,El Paraíso Department,Departamento El Paraíso|El Paraíso|El Paraíso|埃爾帕拉伊索省,HN,13.933333,-86.85,3610942,4627316
Q867112,Gracias a Dios Department,Gracias a Dios Department,格拉西亚斯-阿迪奥斯省|Gracias a Dios|Gracias a Dios|Gracias a Dios,HN,15.266666,-83.76667,3609583,3811537
Q1472841,Soufrière Quarter,Soufrière Quarter,蘇弗里耶爾區|District de Soufrière|Distrito de Soufrière|Soufrière,LC,13.85,-61.05,3576441,9303838
Q1472864,Vieux Fort Quarter,Vieux Fort Quarter,伯堡區|Distrito de Vieux Fort|Vieux Fort|Vieux Fort,LC,13.75,-60.958332,3576413,9303796
Q1473654,Saint Anne Sandy Point Parish,Saint Anne Sandy Point Parish,Saint-Anne Sandy Point|Parroquia de Saint Anne Sandy Point|Saint Anne Sandy Point|聖安娜沙角區,KN,17.375278,-62.84139,3575183,9280612
Q1475374,Paul,"Paul, Cape Verde",保爾縣|Paul|Paul|Paul,CV,17.12,-25.025,3374391,4019982
Q2018692,Beverīna Municipality,Beverīna Municipality,貝韋里納市鎮|Beverīna|Municipalidad de Beverīna|Bezirk Beverīna,LV,57.5,25.45,7628379,
Q2021942,Santiago Rodríguez Province,Santiago Rodríguez Province,聖地亞哥-羅里蓋茲省|Santiago Rodríguez|Santiago Rodríguez|Santiago Rodríguez,DO,19.483334,-71.35,3492912,3412368
Q2024643,Kandava Municipality,Kandava Municipality,Bezirk Kandava|Kandava|坎達瓦市鎮|Municipalidad de Kandava,LV,57.04139,22.773056,7628311,1781251
Q2025473,Ilūkste Municipality,Ilūkste Municipality,伊盧克斯泰市鎮|Municipalidad de Ilūkste|Bezirk Ilūkste|Ilūkste,LV,55.983334,26.3,7628339,
Q2030886,Baldone Municipality,Baldone Municipality,巴爾多內市鎮|Municipalidad de Baldone|Bezirk Baldone|Baldone,LV,56.733334,24.383333,7628324,
Q2045300,Aglona Municipality,Aglona Municipality,阿格洛納市鎮|Aglonas novads|Municipalidad de Aglona|Bezirk Aglona,LV,56.126133,27.014265,7628345,
Q2054290,Gozo,Gozo Region,戈佐区|Gozo|Región de Gozo|Gozo,MT,36.05,14.25,,
